"stop_id","stop_code","stop_name","stop_desc","stop_lat","stop_lon","location_type","parent_station","stop_timezone","wheelchair_boarding","level_id","platform_code"
"00001","00001","E/S of 58th N of Main","","44.046781800","-122.926700500","","","","","",""
"00002","00002","E/S of 58th S of D","","44.049453300","-122.926243300","","","","","",""
"00004","00004","E/S of 58th S of Thurston Rd","","44.052262800","-122.926211100","","","","","",""
"00006","00006","S/S of Thurston W of 64th","","44.052960100","-122.916556800","","","","","",""
"00007","00007","S/S of Thurston E of 65th","","44.052663900","-122.913193100","","","","","",""
"00008","00008","S/S of Thurston W of 66th","","44.053289500","-122.911281200","","","","","",""
"00009","00009","S/S of Thurston W of 67th","","44.053625300","-122.907961400","","","","","",""
"00010","00010","S/S of Thurston E of 68th","","44.053620300","-122.905635400","","","","","",""
"00011","00011","W/S of 69th S of G","","44.052649700","-122.904237700","","","","","",""
"00012","00012","W/S of 69th N of D","","44.049525900","-122.904204900","","","","","",""
"00014","00014","W/S of 69th N of Main St","","44.046241600","-122.903942500","","","","","",""
"00015","00015","N/S of Main W of 68th","","44.045696400","-122.907348300","","","","","",""
"00016","00016","N/S of Main W of 66th","","44.045698000","-122.911635600","","","","","",""
"00017","00017","N/S of Main E of 62nd Pl","","44.045729300","-122.918219800","","","","","",""
"00018","00018","N/S of Main W of 60th Pl","","44.045742600","-122.921420000","","","","","",""
"00019","00019","N/S of Main W of 58th","","44.045835300","-122.927584800","","","","","",""
"00020","00020","S/S of Main E of 54th","","44.045562800","-122.934326700","","","","","",""
"00021","00021","N/S of Main W of 54th","","44.045794100","-122.936341100","","","","","",""
"00023","00023","S/S of Main E of 52nd Pl","","44.045619800","-122.937739700","","","","","",""
"00024","00024","N/S of Main E of 52nd","","44.045791100","-122.938335600","","","","","",""
"00025","00025","S/S of Main E of 51st","","44.045639000","-122.942822600","","","","","",""
"00026","00026","N/S of Main E of 50th","","44.045802700","-122.943410500","","","","","",""
"00028","00028","N/S of Main W of 49th","","44.045821300","-122.947821100","","","","","",""
"00029","00029","S/S of Main W of 48th","","44.045669200","-122.951179300","","","","","",""
"00030","00030","N/S of Main W of 48th","","44.045833400","-122.951310700","","","","","",""
"00032","00032","N/S of Main E of 44th","","44.045848800","-122.957798800","","","","","",""
"00033","00033","S/S of Main E of 44th","","44.045689100","-122.957052700","","","","","",""
"00035","00035","S/S of Main E of 42nd","","44.045704100","-122.961661600","","","","","",""
"00036","00036","N/S of Main W of 42nd","","44.045845600","-122.964058300","","","","","",""
"00037","00037","S/S of Main W of 41st","","44.045718600","-122.966774600","","","","","",""
"00038","00038","N/S of Main W of 41st","","44.045891700","-122.967273800","","","","","",""
"00039","00039","S/S of Main E of 38th","","44.045730300","-122.971409300","","","","","",""
"00040","00040","N/S of Main E of 38th","","44.045850700","-122.970919900","","","","","",""
"00041","00041","N/S of Main W of 35th","","44.045872600","-122.976588700","","","","","",""
"00042","00042","S/S of Main W of 35th","","44.045745800","-122.976458800","","","","","",""
"00043","00043","S/S of Main E of 32nd","","44.045754100","-122.980087600","","","","","",""
"00044","00044","N/S of Main E of 32nd","","44.045916600","-122.979915100","","","","","",""
"00045","00045","S/S of Main E of 28th","","44.045776300","-122.986054900","","","","","",""
"00046","00046","N/S of Main E of 28th","","44.045922600","-122.986401800","","","","","",""
"00047","00047","S/S of Main E of 23rd","","44.045754300","-122.990312700","","","","","",""
"00048","00048","N/S of Main E of 23rd","","44.045948500","-122.990334500","","","","","",""
"00049","00049","N/S of Main W of 23rd","","44.045964700","-122.992938500","","","","","",""
"00050","00050","S/S of Main E of 21st","","44.045760100","-122.993842800","","","","","",""
"00051","00051","N/S of Main E of 20th","","44.045970700","-122.995383500","","","","","",""
"00052","00052","N/S of Main E of 18th","","44.045915100","-122.998442800","","","","","",""
"00053","00053","N/S of Main W of 16th","","44.045939600","-123.002510900","","","","","",""
"00054","00054","N/S of Main W of 14th","","44.045960800","-123.005850100","","","","","",""
"00055","00055","N/S of Main E of 12th","","44.045991700","-123.008403000","","","","","",""
"00056","00056","N/S of Main E of 10th","","44.046009000","-123.011117000","","","","","",""
"00057","00057","N/S of Main W of Mill","","44.046215000","-123.025079400","","","","","",""
"00058","00058","W/S of Mohawk N of G","","44.053982800","-123.004121300","","","","","",""
"00059","00059","S/S of South A E of 14th","","44.044415800","-123.005085600","","","","","",""
"00060","00060","S/S of Olympic E of Mohawk","","44.059527000","-122.999102700","","","","","",""
"00061","00061","N/S of Olympic E of 18th","","44.059762400","-122.996104500","","","","","",""
"00062","00062","S/S of Olympic E of 18th","","44.059576400","-122.995836400","","","","","",""
"00064","00064","N/S of Olympic W of 23rd","","44.059743100","-122.992079300","","","","","",""
"00066","00066","S/S of Olympic W of 28th","","44.059567600","-122.988513300","","","","","",""
"00067","00067","S/S of Marcola Rd. W of 28th","","44.064423600","-122.986163100","","","","","",""
"00068","00068","E/S of 28th N of R","","44.064536400","-122.987736200","","","","","",""
"00069","00069","S/S of Olympic E of 21st","","44.059623300","-122.993032000","","","","","",""
"00070","00070","N/S of Olympic E of 23rd","","44.059733200","-122.989961400","","","","","",""
"00083","00083","N/S of Harlow Road W of Beverly","","44.069945700","-123.045043600","","","","","",""
"00084","00084","S/S of Harlow Rd W of Beverly","","44.069834300","-123.044770900","","","","","",""
"00091","00091","E/S of Gateway N of Gateway Lp","","44.080565100","-123.041528800","","","","","",""
"00092","00092","W/S of Gateway N of Gateway Lp","","44.080577200","-123.041760200","","","","","",""
"00093","00093","W/S of Gateway S of Beltline","","44.082557400","-123.041729900","","","","","",""
"00094","00094","E/S of Gateway N of Kruse","","44.082470800","-123.041488600","","","","","",""
"00127","00127","E/S of 5th N of Q","","44.063162700","-123.019266700","","","","","",""
"00129","00129","E/S of 5th S of T","","44.066077200","-123.019248500","","","","","",""
"00131","00131","E/S of 5th S of V","","44.068765000","-123.019250000","","","","","",""
"00133","00133","S/S of Hayden Bridge Rd E of Mintmeadow Way","","44.070346100","-123.015422800","","","","","",""
"00134","00134","S/S of Hayden Bridge Rd E of 10th","","44.069834800","-123.010800900","","","","","",""
"00135","00135","S/S of Hayden Bridge Rd E of 17th Place N","","44.069697900","-122.998366600","","","","","",""
"00136","00136","S/S of Hayden Bridge Rd E of Harvest Lane","","44.069800700","-123.006527900","","","","","",""
"00137","00137","S/S of Hayden Bridge Rd E of 15th","","44.069745800","-123.002333100","","","","","",""
"00138","00138","W/S of 19th S of Otto","","44.068677900","-122.996671000","","","","","",""
"00139","00139","W/S of 19th S of Rambling Drive","","44.066931700","-122.996681500","","","","","",""
"00140","00140","W/S of 19th N of Marcola","","44.065643600","-122.996678000","","","","","",""
"00141","00141","W/S of Q N of 18th","","44.064193600","-122.997596000","","","","","",""
"00142","00142","N/S of Q W of 16th","","44.062493500","-123.001700700","","","","","",""
"00143","00143","N/S of Q E of 12th","","44.062526100","-123.005919000","","","","","",""
"00144","00144","N/S of Q W of 11th","","44.062538700","-123.009842400","","","","","",""
"00145","00145","N/S of Q W of 10th","","44.062537800","-123.012419800","","","","","",""
"00146","00146","N/S of Q W of 7th","","44.062292100","-123.016776500","","","","","",""
"00147","00147","E/S of 21st N of L","","44.057605200","-122.994275300","","","","","",""
"00160","00160","S/S of Centennial W of 21st","","44.055985100","-122.994691200","","","","","",""
"00162","00162","S/S of Centennial E of 18th","","44.056071500","-122.997557500","","","","","",""
"00164","00164","S/S of Centennial E of 16th","","44.056118400","-123.000167300","","","","","",""
"00166","00166","S/S of Centennial W of Market","","44.056174300","-123.003578900","","","","","",""
"00167","00167","N/S of Centennial W of Market","","44.056257400","-123.004076500","","","","","",""
"00168","00168","S/S of Centennial E of 12th","","44.056216700","-123.008559800","","","","","",""
"00169","00169","N/S of Centennial W of 12th","","44.056270200","-123.009351700","","","","","",""
"00170","00170","S/S of Centennial E of 10th","","44.056193000","-123.011550100","","","","","",""
"00171","00171","N/S of Centennial W of 10th","","44.056288600","-123.013804700","","","","","",""
"00172","00172","S/S of Centennial E of 7th","","44.056204400","-123.016373300","","","","","",""
"00173","00173","N/S of Centennial W of 7th","","44.056317900","-123.017037100","","","","","",""
"00174","00174","N/S of Centennial W of 5th","","44.056291500","-123.020531000","","","","","",""
"00175","00175","S/S of Centennial E of Custom","","44.056302900","-123.022529300","","","","","",""
"00176","00176","N/S of Centennial E of 1st","","44.057147900","-123.025587200","","","","","",""
"00177","00177","S/S of Centennial W of Pioneer Pkwy W","","44.056915600","-123.025249800","","","","","",""
"00178","00178","N/S of Centennial W of Prescott","","44.057253800","-123.034035400","","","","","",""
"00179","00179","S/S of Centennial E of Prescott","","44.057195100","-123.032894400","","","","","",""
"00180","00180","N/S of Centennial W of Rainbow","","44.056200800","-123.038281500","","","","","",""
"00181","00181","S/S of Centennial W of Rainbow Dr","","44.056001400","-123.038232200","","","","","",""
"00182","00182","S/S of Centennial E of Aspen","","44.055642800","-123.042237500","","","","","",""
"00183","00183","N/S of Centennial W of Aspen","","44.055858500","-123.043046200","","","","","",""
"00184","00184","S/S of Centennial E of Anderson","","44.055796100","-123.047316100","","","","","",""
"00185","00185","N/S of Centennial E of Anderson","","44.055910100","-123.047616600","","","","","",""
"00186","00186","W/S of Mohawk S of Olympic","","44.059072700","-123.000145300","","","","","",""
"00187","00187","W/S of Mohawk S of M","","44.056843900","-123.001897100","","","","","",""
"00189","00189","E/S of Mohawk N of G","","44.053561800","-123.004196800","","","","","",""
"00190","00190","E/S of Mohawk N of Modoc","","44.055019100","-123.003007200","","","","","",""
"00191","00191","E/S of Mohawk N of Centennial","","44.056576200","-123.001799900","","","","","",""
"00192","00192","E/S of Mohawk N of M","","44.058062100","-123.000710000","","","","","",""
"00194","00194","N/S of G E of 12th","","44.052372800","-123.007108100","","","","","",""
"00195","00195","S/S of G E of 12th","","44.052237600","-123.008660600","","","","","",""
"00196","00196","N/S of G E of 10th","","44.052347600","-123.012154600","","","","","",""
"00197","00197","N/S of G W of 7th","","44.052352800","-123.017048800","","","","","",""
"00198","00198","S/S of G W of 7th","","44.052312600","-123.017068300","","","","","",""
"00214","00214","W/S of 5th N of Moffitt","","44.060202400","-123.019436300","","","","","",""
"00215","00215","E/S of 5th N of Moffitt","","44.060125000","-123.019304800","","","","","",""
"00216","00216","E/S of 5th N of L","","44.057380400","-123.019360700","","","","","",""
"00217","00217","W/S of 5th N of L","","44.057346700","-123.019479500","","","","","",""
"00218","00218","W/S of 5th N of Broadway","","44.055986500","-123.019538900","","","","","",""
"00219","00219","E/S of 5th S of Broadway","","44.055616900","-123.019354400","","","","","",""
"00220","00220","W/S of 5th S of G","","44.052057100","-123.019508600","","","","","",""
"00221","00221","E/S of 5th N of G","","44.052607300","-123.019408200","","","","","",""
"00223","00223","E/S of 5th N of E","","44.050843700","-123.019450800","","","","","",""
"00239","00239","S/S of Centennial W of 6th","","44.056271900","-123.018315400","","","","","",""
"00241","00241","S/S of Thurston E of 61st","","44.053140800","-122.919583800","","","","","",""
"00242","00242","N/S of Centennial W of Mill","","44.057294200","-123.027906800","","","","","",""
"00243","00243","S/S of Centennial W of Mill","","44.057178300","-123.028026200","","","","","",""
"00244","00244","N/S of Centennial W of Laura","","44.057297700","-123.030126900","","","","","",""
"00245","00245","S/S of Centennial W of Laura","","44.057204200","-123.030591200","","","","","",""
"00249","00249","S/S of South A W of 18th","","44.044401300","-123.000568300","","","","","",""
"00250","00250","N/S of Harlow W of Garden Way","","44.069870200","-123.052500900","","","","","",""
"00251","00251","S/S of Harlow E of Garden Way","","44.069730000","-123.051479100","","","","","",""
"00252","00252","S/S of Harlow E of Honeysuckle","","44.069667200","-123.055773900","","","","","",""
"00253","00253","N/S of Harlow W of Honeysuckle","","44.069777900","-123.056044600","","","","","",""
"00254","00254","N/S of Harlow W of Van Duyn","","44.069679000","-123.058783500","","","","","",""
"00255","00255","S/S of Harlow E of Randall","","44.069545000","-123.059793300","","","","","",""
"00256","00256","N/S of Harlow W of Vincent","","44.069635300","-123.062350600","","","","","",""
"00257","00257","S/S of Harlow W of Palomino","","44.069464400","-123.064143300","","","","","",""
"00258","00258","N/S of Harlow E of Tomahawk","","44.069383500","-123.064725300","","","","","",""
"00259","00259","S/S of Harlow E of Lydick","","44.069430400","-123.067470900","","","","","",""
"00260","00260","N/S of Harlow W of Lydick","","44.069618100","-123.067935600","","","","","",""
"00261","00261","E/S of Oakway S of Westwood","","44.065681000","-123.078272300","","","","","",""
"00265","00265","E/S of Oakway N of Bedford","","44.069230300","-123.078490100","","","","","",""
"00266","00266","W/S of Oakway S of Bedford","","44.068909600","-123.078649800","","","","","",""
"00267","00267","W/S of Oakway S of St Andrews","","44.070949300","-123.078616600","","","","","",""
"00268","00268","E/S of Oakway N of St Andrews","","44.071330800","-123.078445300","","","","","",""
"00269","00269","E/S of Oakway S of Lariat","","44.073101800","-123.078449300","","","","","",""
"00270","00270","W/S of Oakway S of Lariat","","44.073202800","-123.078602300","","","","","",""
"00271","00271","E/S of Oakway S of Sandy","","44.074730800","-123.078433800","","","","","",""
"00272","00272","W/S of Oakway N of Law","","44.074881400","-123.078599500","","","","","",""
"00273","00273","W/S of Oakway S of Roland","","44.076536800","-123.078582800","","","","","",""
"00274","00274","E/S of Oakway N of Roland","","44.076814100","-123.078404100","","","","","",""
"00305","00305","S/S of Crescent W of Coburg Rd","","44.092916100","-123.068440200","","","","","",""
"00306","00306","N/S of Crescent W of Coburg Rd","","44.092974900","-123.068743500","","","","","",""
"00307","00307","N/S of Crescent E of Chuckanut","","44.092980100","-123.072229300","","","","","",""
"00308","00308","S/S of Crescent E of Chuckanut","","44.092895800","-123.072361600","","","","","",""
"00309","00309","N/S of Crescent E of Sarah","","44.092984100","-123.075557000","","","","","",""
"00310","00310","S/S of Crescent W of Gay","","44.092870600","-123.075699000","","","","","",""
"00311","00311","N/S of Crescent E of Coach","","44.092983600","-123.077761800","","","","","",""
"00312","00312","S/S of Crescent E of Coach","","44.092894600","-123.077939400","","","","","",""
"00313","00313","N/S of Crescent E of Gilham","","44.092997500","-123.080461700","","","","","",""
"00315","00315","N/S of Crescent E of Tulip","","44.093294600","-123.085338400","","","","","",""
"00318","00318","W/S of Gilham S of Brewer","","44.086129800","-123.081341100","","","","","",""
"00322","00322","S/S of G E of 10th","","44.052248200","-123.012076800","","","","","",""
"00323","00323","N/S of 6th W of Willamette","","44.053294700","-123.093113900","","","","","",""
"00324","00324","E/S of Hilyard S of 22nd","","44.035497400","-123.082110800","","","","","",""
"00328","00328","N/S of 18th W of Alder","","44.040064900","-123.081248800","","","","","",""
"00334","00334","W/S of Gilham S of Terresa","","44.089814400","-123.081347900","","","","","",""
"00339","00339","E/S of Hilyard S of 24th","","44.033041200","-123.082030400","","","","","",""
"00351","00351","W/S of Patterson S of 19th","","44.038413800","-123.083743600","","","","","",""
"00352","00352","W/S of Patterson N of 22nd","","44.035698700","-123.083725600","","","","","",""
"00353","00353","W/S of Hilyard N of 26th","","44.030747000","-123.081625300","","","","","",""
"00354","00354","W/S of Hilyard N of 28th","","44.028043300","-123.081586600","","","","","",""
"00355","00355","W/S of Hilyard S of 30th","","44.023684200","-123.081761900","","","","","",""
"00356","00356","W/S of Hilyard S of 34th","","44.018653700","-123.081634700","","","","","",""
"00357","00357","W/S of Hilyard S of 36th","","44.016601400","-123.082002900","","","","","",""
"00358","00358","W/S of W. Amazon S of 37th","","44.015723600","-123.078900300","","","","","",""
"00359","00359","W/S of W. Amazon S of 39th Pl","","44.012456800","-123.077480500","","","","","",""
"00360","00360","W/S of W. Amazon N of Fox Hollow","","44.010786900","-123.076864600","","","","","",""
"00361","00361","W/S of W. Amazon N of 44th","","44.008148300","-123.076032400","","","","","",""
"00363","00363","W/S of W. Amazon N of Larch","","44.004821900","-123.075603400","","","","","",""
"00364","00364","W/S of W. Amazon S of Snell","","44.003144800","-123.075733000","","","","","",""
"00365","00365","W/S of W. Amazon S of Sprague","","44.001428800","-123.076271600","","","","","",""
"00366","00366","W/S of W. Amazon N of Martin","","43.998425500","-123.077983600","","","","","",""
"00367","00367","S/S of Martin W of Center","","43.996682000","-123.075274600","","","","","",""
"00368","00368","E/S of Center N of Alpine","","43.998638500","-123.075340500","","","","","",""
"00369","00369","E/S of Center S of E. Amazon","","44.000327700","-123.075118100","","","","","",""
"00370","00370","E/S of E. Amazon N of Snell","","44.003589200","-123.074917400","","","","","",""
"00371","00371","E/S of E. Amazon N of Dillard","","44.006357800","-123.075151400","","","","","",""
"00372","00372","E/S of E. Amazon N of Kincaid","","44.008173300","-123.075432200","","","","","",""
"00373","00373","E/S of E. Amazon S of Potter","","44.010128700","-123.075936800","","","","","",""
"00374","00374","E/S of E. Amazon S of 39th","","44.012699200","-123.076856600","","","","","",""
"00375","00375","E/S of E. Amazon N of 37th","","44.016132800","-123.078281400","","","","","",""
"00376","00376","E/S of E. Amazon N of 35th","","44.018656800","-123.079622200","","","","","",""
"00377","00377","E/S of E. Amazon S of Hilyard","","44.020561900","-123.080927800","","","","","",""
"00378","00378","E/S of Hilyard N of 28th","","44.027368200","-123.081460700","","","","","",""
"00381","00381","E/S of Hilyard N of 19th","","44.039164700","-123.082100900","","","","","",""
"00382","00382","E/S of Hilyard S of 17th","","44.040579300","-123.082098800","","","","","",""
"00383","00383","S/S of 18th W of Four Oaks Grg","","44.038278800","-123.161899800","","","","","",""
"00384","00384","N/S of 18th W of Langton","","44.039147700","-123.159098400","","","","","",""
"00385","00385","E/S of 18th N of Churchill","","44.039046500","-123.159045100","","","","","",""
"00387","00387","N/S of 18th E of Josh","","44.040743000","-123.156890300","","","","","",""
"00388","00388","S/S of 18th W of Peppertree","","44.040739400","-123.154500300","","","","","",""
"00389","00389","N/S of 18th E of Peppertree","","44.040832200","-123.154359700","","","","","",""
"00391","00391","N/S of 18th 2nd stop W of Bailey Hill","","44.040815600","-123.151110300","","","","","",""
"00392","00392","S/S of 18th 1st stop W of Bailey Hill","","44.040672600","-123.149072700","","","","","",""
"00393","00393","N/S of 18th 1st stop W of Bailey Hill","","44.040786200","-123.148780600","","","","","",""
"00394","00394","S/S of 18th W of Mistletoe","","44.040662200","-123.145827600","","","","","",""
"00395","00395","N/S of 18th W of Mistletoe","","44.040759600","-123.145909500","","","","","",""
"00396","00396","S/S of 18th E of Quaker","","44.040625200","-123.142920400","","","","","",""
"00397","00397","N/S of 18th W of Quaker","","44.040739000","-123.143608200","","","","","",""
"00398","00398","S/S of 18th W of Buck","","44.040658100","-123.140559100","","","","","",""
"00399","00399","N/S of 18th W of Buck","","44.040709300","-123.139852900","","","","","",""
"00400","00400","S/S of 18th E of Greiner","","44.040577300","-123.138031300","","","","","",""
"00401","00401","N/S of 18th W of Oak Patch","","44.041216100","-123.136060200","","","","","",""
"00403","00403","N/S of 18th W of Wilson","","44.040619200","-123.132986900","","","","","",""
"00404","00404","S/S of 18th W of McKinley","","44.040512600","-123.130523000","","","","","",""
"00406","00406","N/S of 18th W of City View","","44.040620300","-123.128705700","","","","","",""
"00407","00407","S/S of 18th E of City View","","44.040478600","-123.126504900","","","","","",""
"00408","00408","N/S of 18th W of Arthur","","44.040565100","-123.124998900","","","","","",""
"00409","00409","S/S of 18th E of Arthur","","44.040447600","-123.123622600","","","","","",""
"00410","00410","N/S of 18th E of Garfield","","44.040542100","-123.122686700","","","","","",""
"00411","00411","N/S of 18th W of Grant","","44.040519100","-123.120743400","","","","","",""
"00412","00412","S/S of 18th W of Grant","","44.040415500","-123.120463500","","","","","",""
"00413","00413","S/S of 18th E of Chambers","","44.040331500","-123.116924100","","","","","",""
"00414","00414","N/S of 18th E of Chambers","","44.040506300","-123.116890600","","","","","",""
"00415","00415","N/S of 18th W of Polk","","44.040407700","-123.113233900","","","","","",""
"00416","00416","S/S of 18th E of Polk","","44.040293600","-123.111551200","","","","","",""
"00417","00417","N/S of 18th W of Van Buren","","44.040367600","-123.109832400","","","","","",""
"00418","00418","S/S of 18th W of Jackson","","44.040257300","-123.108377000","","","","","",""
"00419","00419","S/S of 18th W of Friendly","","44.040232600","-123.106155600","","","","","",""
"00420","00420","N/S of 18th W of Friendly","","44.040334800","-123.106210500","","","","","",""
"00421","00421","N/S of 18th W of Madison","","44.040341700","-123.103255800","","","","","",""
"00422","00422","S/S of 18th W of Madison","","44.040238700","-123.103082700","","","","","",""
"00423","00423","S/S of 18th E of Jefferson","","44.040238100","-123.100596600","","","","","",""
"00424","00424","N/S of 18th E of Jefferson","","44.040336800","-123.100506600","","","","","",""
"00425","00425","S/S of 18th E of Lawrence","","44.040072200","-123.098141600","","","","","",""
"00426","00426","N/S of 18th W of Lincoln","","44.040176800","-123.097718000","","","","","",""
"00427","00427","S/S of 18th W of Charnelton","","44.040012200","-123.095793600","","","","","",""
"00428","00428","N/S of 18th W of Willamette","","44.040121400","-123.093237200","","","","","",""
"00477","00477","S/S of 24th E of Chambers","","44.033054600","-123.117331500","","","","","",""
"00478","00478","E/S of Chambers S of 25th","","44.032240300","-123.117716600","","","","","",""
"00479","00479","E/S of Chambers S of North View","","44.030061500","-123.117728200","","","","","",""
"00481","00481","W/S of Willamette S of 14th","","44.044338300","-123.092836200","","","","","",""
"00482","00482","W/S of Willamette S of 12th","","44.046110300","-123.092754300","","","","","",""
"00483","00483","W/S of Willamette S of 16th","","44.041972900","-123.092840300","","","","","",""
"00484","00484","W/S of Willamette S of 18th","","44.039546500","-123.092892200","","","","","",""
"00486","00486","E/S of Willamette S of 20th","","44.037107500","-123.092110300","","","","","",""
"00487","00487","W/S of Willamette N of 22nd","","44.035566500","-123.091683500","","","","","",""
"00488","00488","E/S of Willamette N of 23rd","","44.034583200","-123.091247100","","","","","",""
"00490","00490","W/S of Willamette S of 24th","","44.033265000","-123.090848600","","","","","",""
"00491","00491","E/S of Willamette N of 25th","","44.031665700","-123.090630800","","","","","",""
"00492","00492","W/S of Willamette S of 25th","","44.031051500","-123.090786700","","","","","",""
"00493","00493","E/S of Willamette N of 27th","","44.029644500","-123.090651300","","","","","",""
"00494","00494","W/S of Willamette S of 27th","","44.028648600","-123.090776800","","","","","",""
"00495","00495","W/S of Willamette N of 29th","","44.027267100","-123.090780900","","","","","",""
"00496","00496","E/S of Willamette N of 29th","","44.027037100","-123.090653700","","","","","",""
"00497","00497","W/S of Willamette S of 29th","","44.025703100","-123.090798800","","","","","",""
"00498","00498","E/S of Willamette N of 30th","","44.024703000","-123.090657300","","","","","",""
"00499","00499","W/S of Willamette N of 30th","","44.024250700","-123.090780400","","","","","",""
"00501","00501","W/S of Donald N of 33rd","","44.021448400","-123.090362600","","","","","",""
"00502","00502","W/S of Donald N of 34th","","44.019380900","-123.089741600","","","","","",""
"00503","00503","W/S of Donald S of Pearl","","44.017030900","-123.088804900","","","","","",""
"00504","00504","W/S of Donald S of 37th","","44.015019600","-123.087807300","","","","","",""
"00505","00505","W/S of Donald N of Mill","","44.013053400","-123.087663000","","","","","",""
"00506","00506","W/S of Donald S of 40th","","44.011037700","-123.087283600","","","","","",""
"00507","00507","W/S of Donald N of 43rd","","44.008547100","-123.087280600","","","","","",""
"00508","00508","W/S of Donald N of 46th","","44.006306500","-123.088705300","","","","","",""
"00510","00510","S/S of 46th W of Fox Hollow","","44.004192900","-123.082810900","","","","","",""
"00511","00511","W/S of Fox Hollow N of Princess","","44.001712100","-123.083834600","","","","","",""
"00512","00512","W/S of Fox Hollow S of Princess","","43.999299200","-123.084412900","","","","","",""
"00513","00513","W/S of Fox Hollow S of Saint Clair","","43.997992800","-123.085548900","","","","","",""
"00514","00514","W/S of Fox Hollow N of Saratoga","","43.996594500","-123.087337300","","","","","",""
"00515","00515","N/S of Donald W of Fox Hollow","","43.995521000","-123.089441300","","","","","",""
"00516","00516","E/S of Donald S/O Cul deSac 5315-35","","43.998232900","-123.090643600","","","","","",""
"00517","00517","E/S of Donald N of Cul deSac 5235-85","","43.999350600","-123.090447500","","","","","",""
"00518","00518","E/S of Donald N of 50th","","44.001636800","-123.090146300","","","","","",""
"00519","00519","E/S of Donald N of 49th","","44.003356800","-123.089854100","","","","","",""
"00520","00520","E/S of Donald N of 46th","","44.006261100","-123.088624400","","","","","",""
"00532","00532","S/S of 2nd E of Taylor","","44.057478200","-123.113727200","","","","","",""
"00533","00533","N/S of 2nd W of Taylor","","44.057549900","-123.114608900","","","","","",""
"00538","00538","N/S of MLK Blvd W of Garden Way","","44.055715500","-123.054690400","","","","","",""
"00539","00539","S/S of MLK Blvd E of Lindley","","44.055603400","-123.053269100","","","","","",""
"00540","00540","N/S of MLK Blvd E of Chevy Chase","","44.055552800","-123.059146300","","","","","",""
"00541","00541","S/S of MLK Blvd E of Chevy Chase","","44.055447100","-123.058437400","","","","","",""
"00542","00542","N/S of MLK Blvd W of Kinsrow","","44.058576800","-123.062411600","","","","","",""
"00543","00543","W/S of MLK Blvd S of Kinsrow","","44.057758100","-123.062329800","","","","","",""
"00544","00544","N/S of MLK Blvd at Serbu Center","","44.060091600","-123.067477800","","","","","",""
"00545","00545","S/S of MLK Blvd at Serbu Center","","44.059929300","-123.067070800","","","","","",""
"00546","00546","S/S of MLK Blvd Eof Scout Access","","44.059804400","-123.070568600","","","","","",""
"00547","00547","N/S of MLK Blvd W of Scout Access","","44.059994200","-123.070804800","","","","","",""
"00548","00548","N/S of MLK Blvd E of Centennial Lp","","44.059754200","-123.076490800","","","","","",""
"00549","00549","S/S of MLK Blvd E of Centennial Lp","","44.059638600","-123.075565100","","","","","",""
"00550","00550","E/S of Coburg S of MLK Blvd","","44.059796600","-123.082181600","","","","","",""
"00551","00551","W/S of Coburg N of Oakway","","44.064300500","-123.076993900","","","","","",""
"00552","00552","W/S of Coburg S of Oakmont","","44.065635200","-123.074534000","","","","","",""
"00553","00553","E/S of Coburg N of Rustic","","44.067284000","-123.072058300","","","","","",""
"00554","00554","W/S of Coburg S of Frontier","","44.067538300","-123.072179100","","","","","",""
"00555","00555","E/S of Coburg N of Pioneer Pike","","44.068784100","-123.070616500","","","","","",""
"00556","00556","W/S of Coburg S of Pioneer Pike","","44.068548400","-123.071069700","","","","","",""
"00557","00557","E/S of Coburg N of Tomahawk","","44.071657700","-123.069409400","","","","","",""
"00558","00558","W/S of Coburg S of Tomahawk","","44.071474300","-123.069632500","","","","","",""
"00559","00559","W/S of Coburg S of Tandy Turn","","44.072590800","-123.069616600","","","","","",""
"00560","00560","E/S of Coburg N of Tandy Turn","","44.073663100","-123.069379000","","","","","",""
"00561","00561","E/S of Coburg S of Bailey","","44.075319300","-123.069346600","","","","","",""
"00562","00562","W/S of Coburg S of Bailey","","44.075780500","-123.069594800","","","","","",""
"00563","00563","E/S of Coburg N of Cal Young","","44.078284900","-123.068768300","","","","","",""
"00564","00564","W/S of Coburg N of Cal Young","","44.078602900","-123.068912400","","","","","",""
"00565","00565","E/S of Coburg S of Willakenzie","","44.079585500","-123.067974300","","","","","",""
"00566","00566","E/S of Coburg N of Willakenzie","","44.081375100","-123.067372700","","","","","",""
"00567","00567","W/S of Coburg N of Willakenzie","","44.081161700","-123.067608600","","","","","",""
"00568","00568","E/S of Coburg S of Adkins","","44.083738700","-123.067470400","","","","","",""
"00569","00569","W/S of Coburg N of Elysium","","44.085386300","-123.067760000","","","","","",""
"00570","00570","E/S of Coburg S of Beltline","","44.086082600","-123.067542400","","","","","",""
"00575","00575","S/S of Green Acres W of Applewood","","44.093234800","-123.093473400","","","","","",""
"00576","00576","N/S of Green Acres E of Applewood","","44.093294100","-123.092350500","","","","","",""
"00577","00577","S/S of Green Acres W of Balboa","","44.092842300","-123.089789600","","","","","",""
"00579","00579","N/S of Green Acres W of Norkenzie","","44.092894100","-123.087923100","","","","","",""
"00594","00594","N/S of Goodpstre Is W of Goodpstre Lp","","44.086830600","-123.107341700","","","","","",""
"00595","00595","S/S of Goodpstre Is E of Goodpstre Lp","","44.086732400","-123.106397300","","","","","",""
"00596","00596","N/S of Goodpstre Is W of James","","44.086279900","-123.109507600","","","","","",""
"00597","00597","W/S of Goodpstre Is N of Kingsley","","44.084464200","-123.111207800","","","","","",""
"00598","00598","E/S of Goodpstre Is N of Kingsley","","44.084393100","-123.111028200","","","","","",""
"00599","00599","W/S of Goodpstre Is Sof Wimbledon","","44.080410100","-123.111713600","","","","","",""
"00601","00601","W/S of Goodpstre Is S of 1355 GPI","","44.073045000","-123.108206600","","","","","",""
"00602","00602","E/S of Goodpstre Is Sof DeltaVillage","","44.073692600","-123.107954400","","","","","",""
"00603","00603","E/S of Goodpstre Isl (1st stop N of VRDr)","","44.071426200","-123.107951600","","","","","",""
"00604","00604","W/S of Goodpstre Is N of VRDr","","44.071721600","-123.108165300","","","","","",""
"00605","00605","W/S of VR Way S of VR Dr","","44.068366700","-123.103217400","","","","","",""
"00606","00606","W/S of VR Way S of VR Inn","","44.065729300","-123.103066900","","","","","",""
"00607","00607","VRC Sta, Bay B--outbound","","44.067104000","-123.106507300","","99909","","","","B"
"00627","00627","W/S of Gilham N of Myers","","44.081722100","-123.081055100","","","","","",""
"00628","00628","E/S of Gilham S of Marlow","","44.081699100","-123.080938800","","","","","",""
"00629","00629","E/S of Gilham N of Carmel","","44.080431100","-123.080940000","","","","","",""
"00630","00630","W/S of Gilham S of Carmel","","44.079854100","-123.081076300","","","","","",""
"00631","00631","S/S of Cal Young E of Gilham","","44.077518800","-123.079985500","","","","","",""
"00632","00632","N/S of Cal Young E of Gilham","","44.077622600","-123.079972300","","","","","",""
"00638","00638","S/S of Wilkes E of River Rd","","44.115596100","-123.135957600","","","","","",""
"00639","00639","S/S of Wilkes W of Tempa","","44.115353400","-123.132074900","","","","","",""
"00640","00640","E/S of Scenic S of Dean","","44.117235800","-123.130329500","","","","","",""
"00641","00641","E/S of Scenic N of River Lp","","44.120276300","-123.130520800","","","","","",""
"00643","00643","E/S of Scenic N of Warrington","","44.123737100","-123.130494000","","","","","",""
"00644","00644","N/S of Spring Crk E of Shannon","","44.124326100","-123.134309500","","","","","",""
"00645","00645","N/S of Spring Crk W of Scottdale","","44.124284700","-123.136413000","","","","","",""
"00646","00646","W/S of River Rd S of Spring Creek","","44.123514200","-123.140786200","","","","","",""
"00647","00647","W/S of River Rd S of Lynnbrook","","44.121265200","-123.139609800","","","","","",""
"00648","00648","W/S of River Rd S of Dean","","44.118310500","-123.138290800","","","","","",""
"00649","00649","W/S of River Rd S of Irvington","","44.115159200","-123.136640500","","","","","",""
"00650","00650","W/S of River Rd N of Blackfoot","","44.113345300","-123.135948300","","","","","",""
"00651","00651","E/S of River Rd S of Anchor","","44.113566300","-123.135723800","","","","","",""
"00652","00652","W/S of River Rd S of Blazer","","44.111221800","-123.134975600","","","","","",""
"00653","00653","E/S of River Rd N of Wedgewood","","44.111393900","-123.134750300","","","","","",""
"00654","00654","W/S of River Rd S of Ferndale","","44.108375400","-123.133681500","","","","","",""
"00655","00655","E/S of River Rd N of River Lp1","","44.109420500","-123.133811900","","","","","",""
"00656","00656","E/S of River Rd S of Banton","","44.106665600","-123.132609300","","","","","",""
"00657","00657","W/S of River Rd S of Myoak","","44.105945500","-123.132581000","","","","","",""
"00658","00658","E/S of River Rd N of Azalea","","44.105297900","-123.132010500","","","","","",""
"00659","00659","W/S of River Rd N of Irving","","44.103978800","-123.131739200","","","","","",""
"00660","00660","S/S of Irving E of Belmont","","44.103389600","-123.132533000","","","","","",""
"00664","00664","S/S of Irving E of Dover","","44.103412300","-123.139916300","","","","","",""
"00666","00666","S/S of Irving W of Stratford","","44.103373000","-123.143412100","","","","","",""
"00667","00667","W/S of Goodpasture Island Rd N of Delta Ponds Xing","","44.075520600","-123.108214800","","","","","",""
"00668","00668","E/S of Goodpasture Island Rd S of Delta Ponds Xing","","44.075632000","-123.107910600","","","","","",""
"00678","00678","S/S of Irving W of Stark","","44.103415900","-123.146894300","","","","","",""
"00681","00681","W/S of River Rd N of Santa Clara","","44.100654400","-123.130325800","","","","","",""
"00682","00682","N/S of Maxwell W of Evergreen Drive","","44.090393600","-123.128956100","","","","","",""
"00683","00683","N/S of Maxwell W of Dalton Drive","","44.090440600","-123.135731300","","","","","",""
"00689","00689","S/S of Silver E of Sterling West","","44.095545400","-123.137228900","","","","","",""
"00695","00695","E/S of Grove S of Maxwell","","44.090078900","-123.138289600","","","","","",""
"00700","00700","E/S of River Rd S of Hamilton","","44.091252100","-123.126077200","","","","","",""
"00701","00701","W/S of River Rd S of Maxwell","","44.090031900","-123.125752200","","","","","",""
"00702","00702","E/S of River Rd S of Corliss","","44.092864400","-123.126661200","","","","","",""
"00703","00703","W/S of River Rd S of Kourt","","44.092079500","-123.126683600","","","","","",""
"00704","00704","(RRS) E/S River Rd N of River Ave (on-street)","","44.096093100","-123.127988400","","99910","","","",""
"00705","00705","W/S of River Rd S of Silver","","44.094712500","-123.127832800","","","","","",""
"00713","00713","S/S of Howard E of Park","","44.088038400","-123.143638500","","","","","",""
"00715","00715","S/S of Howard W of Maywood","","44.088007800","-123.140768900","","","","","",""
"00717","00717","S/S of Howard W of Grove","","44.088000000","-123.138757100","","","","","",""
"00735","00735","W/S of N Park Ave N of Beebe","","44.078126100","-123.137945600","","","","","",""
"00736","00736","E/S of Park S of Beebe","","44.077777800","-123.137906300","","","","","",""
"00737","00737","S/S of N Park Ave E of Filbert","","44.074182400","-123.132862100","","","","","",""
"00738","00738","N/S of Park W of Filbert","","44.074234100","-123.133214300","","","","","",""
"00739","00739","S/S of Park E of Chestnut","","44.074260900","-123.129136400","","","","","",""
"00740","00740","N/S of Park W of Park Terrace","","44.074296600","-123.129512700","","","","","",""
"00741","00741","S/S of Park E of Meriau","","44.074329900","-123.126499600","","","","","",""
"00742","00742","N/S of Park E of Meriau","","44.074362100","-123.126668200","","","","","",""
"00743","00743","S/S of Park E of Mayfair","","44.074396600","-123.122888700","","","","","",""
"00744","00744","N/S of Park E of Mayfair","","44.074397300","-123.124727500","","","","","",""
"00745","00745","N/S of Park W of River Rd","","44.074530800","-123.120036600","","","","","",""
"00746","00746","N/S of Barger W of Century","","44.084563300","-123.157800700","","","","","",""
"00747","00747","S/S of Barger W of Empire Park","","44.084446300","-123.156568200","","","","","",""
"00748","00748","N/S of Barger W of Clarey","","44.084582600","-123.161389100","","","","","",""
"00749","00749","S/S of Barger E of Taney","","44.084452100","-123.160015300","","","","","",""
"00750","00750","N/S of Barger E of Altimont","","44.084594100","-123.163703100","","","","","",""
"00752","00752","N/S of Barger W of Echo Hollow","","44.084744300","-123.168833700","","","","","",""
"00753","00753","S/S of Barger W/S Beltline","","44.084402400","-123.172487100","","","","","",""
"00754","00754","N/S of Barger E of Laurelhurst","","44.084666500","-123.173875800","","","","","",""
"00756","00756","N/S of Barger W of Golden Gardens","","44.084638400","-123.177844100","","","","","",""
"00757","00757","S/S of Barger W of Golden Gardens","","44.084529800","-123.177489600","","","","","",""
"00758","00758","N/S of Barger E of E Irwin Way","","44.084657100","-123.182164200","","","","","",""
"00759","00759","S/S of Barger E of Devos","","44.084539100","-123.180659500","","","","","",""
"00761","00761","S/S of Barger W of East Irwin","","44.084545100","-123.183146200","","","","","",""
"00762","00762","N/S of Barger W of West Irwin","","44.084665600","-123.185716300","","","","","",""
"00763","00763","S/S of Barger W of West Irwin","","44.084560400","-123.185868200","","","","","",""
"00765","00765","S/S of Barger E of Terry","","44.084574100","-123.187582100","","","","","",""
"00778","00778","E/S of Echo Hollow S of Dove","","44.082402700","-123.168051200","","","","","",""
"00779","00779","W/S of Echo Hollow S of Barger","","44.083028400","-123.168185200","","","","","",""
"00780","00780","E/S of Echo Hollow N of Murnane","","44.079902800","-123.168056000","","","","","",""
"00781","00781","W/S of Echo Hollow N of Murnane","","44.079952300","-123.168120800","","","","","",""
"00782","00782","E/S of Echo Hollow N of Willhi","","44.078447000","-123.168048000","","","","","",""
"00783","00783","W/S of Echo Hollow S of Willhi","","44.077940500","-123.168181400","","","","","",""
"00786","00786","E/S of Echo Hollow N of Sean","","44.075020100","-123.168038100","","","","","",""
"00787","00787","W/S of Echo Hollow S of Sean","","44.074805800","-123.168177300","","","","","",""
"00799","00799","W/S of Jacobs S of Concord","","44.076002000","-123.150613300","","","","","",""
"00801","00801","S/S of Jacobs W of Fairfield","","44.073915800","-123.149295700","","","","","",""
"00802","00802","N/S of Royal W of Bon Vue","","44.070142500","-123.144547100","","","","","",""
"00803","00803","S/S of Royal E of Wide Site","","44.070053900","-123.145159800","","","","","",""
"00804","00804","N/S of Royal W of Jerry","","44.070156600","-123.146959900","","","","","",""
"00805","00805","S/S of Royal E of Fairfield","","44.070063300","-123.148351800","","","","","",""
"00814","00814","W/S of Bertelsen N of Bell","","44.068827400","-123.163166800","","","","","",""
"00815","00815","N/S of Royal E of Ruskin","","44.070007800","-123.165264900","","","","","",""
"00816","00816","S/S of Royal W of Ruskin","","44.069913700","-123.167080100","","","","","",""
"00825","00825","N/S of Royal E of Candlelight","","44.070104000","-123.179963200","","","","","",""
"00826","00826","S/S of Royal W of Danebo","","44.069951800","-123.179039600","","","","","",""
"00827","00827","N/S of Royal E of Royal Oak Dr","","44.070124800","-123.183330200","","","","","",""
"00828","00828","S/S of Royal E of Royal Oak Dr","","44.070008600","-123.183087500","","","","","",""
"00829","00829","N/S of Royal E of Driftwood","","44.070151800","-123.186923400","","","","","",""
"00830","00830","S/S of Royal W of Driftwood","","44.070024300","-123.187056900","","","","","",""
"00831","00831","E/S of Terry N of Royal","","44.072216800","-123.188168100","","","","","",""
"00832","00832","E/S of Terry N of Daneland","","44.074972500","-123.188152800","","","","","",""
"00833","00833","E/S of Bertelsen N of Bell","","44.068710100","-123.162996100","","","","","",""
"00846","00846","E/S of Bertelsen Road N of W 5th Ave","","44.054720200","-123.163050100","","","","","",""
"00848","00848","E/S of River Rd S of E Rosewood","","44.089586600","-123.125348500","","","","","",""
"00849","00849","W/S of River Rd S of Howard","","44.087535400","-123.124804000","","","","","",""
"00850","00850","E/S of River Rd S of Merry","","44.084599100","-123.123315700","","","","","",""
"00851","00851","W/S of River Rd N of Lindner","","44.084695000","-123.123624400","","","","","",""
"00852","00852","E/S of River Rd N of Arbor","","44.082043600","-123.122194900","","","","","",""
"00853","00853","W/S of River Rd S of Horn","","44.081197400","-123.122153300","","","","","",""
"00854","00854","W/S of River Rd S of Hilliard","","44.078485100","-123.120994400","","","","","",""
"00855","00855","E/S of River Rd N of Hilliard","","44.079591700","-123.121193300","","","","","",""
"00856","00856","E/S of River Rd N of McClure","","44.077071300","-123.120125800","","","","","",""
"00857","00857","W/S of River Rd S of Elkay","","44.076418500","-123.120028900","","","","","",""
"00858","00858","E/S of River Rd N of Park","","44.074809600","-123.119155500","","","","","",""
"00859","00859","W/S of River Rd S of Park","","44.074316900","-123.119241300","","","","","",""
"00860","00860","E/S of River Rd N of Knoop","","44.071990700","-123.118490300","","","","","",""
"00861","00861","W/S of River Rd S of Knoop","","44.071068900","-123.118614200","","","","","",""
"00862","00862","E/S of River Rd N of Hansen","","44.069216900","-123.117981900","","","","","",""
"00863","00863","W/S of River Rd S of Hansen","","44.068336400","-123.118093900","","","","","",""
"00864","00864","W/S of River Rd S of Briarcliff","","44.066226200","-123.117684100","","","","","",""
"00865","00865","E/S of River Rd S of Briarcliff","","44.066453900","-123.117443400","","","","","",""
"00868","00868","E/S of Railroad N of Cross","","44.062008800","-123.116050100","","","","","",""
"00869","00869","W/S of Railroad S of Cross","","44.061522900","-123.115398900","","","","","",""
"00870","00870","E/S of Railroad N of Polk","","44.060118300","-123.113016500","","","","","",""
"00871","00871","W/S of Railroad E of Polk","","44.059722900","-123.112429200","","","","","",""
"00872","00872","S/S of 1st E of Van Buren","","44.058671400","-123.108055600","","","","","",""
"00873","00873","N/S of 1st E of Jackson","","44.058735300","-123.108311700","","","","","",""
"00874","00874","N/S of 1st E of Adams","","44.058797000","-123.105759700","","","","","",""
"00875","00875","S/S of 1st E of Monroe","","44.058707700","-123.104550400","","","","","",""
"00876","00876","N/S of 1st W of Jefferson","","44.058806400","-123.102261800","","","","","",""
"00877","00877","W/S of Jefferson S of 1st","","44.058447900","-123.101882100","","","","","",""
"00878","00878","W/S of Jefferson S of 4th","","44.055201200","-123.101922500","","","","","",""
"00880","00880","E/S of Washington N of 5th","","44.054821800","-123.100303100","","","","","",""
"00881","00881","E/S of Washington N of 3rd","","44.056786900","-123.100282300","","","","","",""
"00882","00882","N/S of 5th W of Jefferson","","44.054408500","-123.102172300","","","","","",""
"00883","00883","S/S of 5th W of Madison","","44.054292800","-123.103671200","","","","","",""
"00884","00884","N/S of 5th W of Monroe","","44.054373300","-123.105286200","","","","","",""
"00885","00885","S/S of 5th E of Adams","","44.054303100","-123.106113500","","","","","",""
"00897","00897","N/S of Roosevelt E of Arthur","","44.063437100","-123.124973000","","","","","",""
"00898","00898","S/S of Roosevelt W of Garfield","","44.063322600","-123.124928300","","","","","",""
"00899","00899","N/S of Roosevelt E of Bethel","","44.063701000","-123.129128300","","","","","",""
"00900","00900","S/S of Roosevelt E of Bethel","","44.063614400","-123.128978600","","","","","",""
"00904","00904","S/S of Roosevelt E of Foch","","44.063629600","-123.132030700","","","","","",""
"00905","00905","N/S of Roosevelt E of Foch","","44.063730800","-123.132231300","","","","","",""
"00906","00906","N/S of Roosevelt E of Hwy 99","","44.063781200","-123.135814100","","","","","",""
"00907","00907","S/S of Roosevelt E of Hwy 99","","44.063630600","-123.135619900","","","","","",""
"00908","00908","N/S of Roosevelt W of Hwy99","","44.063812600","-123.138300000","","","","","",""
"00910","00910","N/S of Roosevelt W of Seneca","","44.063867600","-123.140987200","","","","","",""
"00912","00912","E/S of Maple S of Elmira","","44.064649100","-123.142877900","","","","","",""
"00913","00913","S/S of Elmira W of Hwy 99","","44.065698200","-123.139045700","","","","","",""
"00914","00914","N/S of Elmira W of Gilbert","","44.065916000","-123.144587500","","","","","",""
"00915","00915","S/S of Elmira W of Gilbert","","44.065885200","-123.144902100","","","","","",""
"00918","00918","N/S of Elmira W of Fairfield","","44.066066100","-123.148357900","","","","","",""
"00919","00919","S/S of Elmira E of Anton","","44.066055100","-123.149193900","","","","","",""
"00920","00920","N/S of Elmira E of Baxter","","44.066176000","-123.151919000","","","","","",""
"00921","00921","S/S of Elmira E of Baxter","","44.066147900","-123.151746900","","","","","",""
"00922","00922","N/S of Elmira W of Archie St","","44.066249800","-123.155799200","","","","","",""
"00924","00924","N/S of Elmira W of Hope Ln","","44.066308300","-123.161791800","","","","","",""
"00931","00931","E/S of Fairfield N of Royal","","44.070613100","-123.148695100","","","","","",""
"00932","00932","E/S of Fairfield N of Hawthorne","","44.072884300","-123.148648800","","","","","",""
"00933","00933","W/S of Fairfield N of Hawthorne","","44.072856100","-123.148730700","","","","","",""
"00934","00934","S/S of Fairfield W of Hwy 99","","44.074277000","-123.147684700","","","","","",""
"00935","00935","W/S of Jefferson S of 18th","","44.039762600","-123.101339100","","","","","",""
"00936","00936","E/S of Jefferson N of 19th","","44.039150300","-123.101224000","","","","","",""
"00937","00937","W/S of Jefferson S of 19th","","44.038693900","-123.101339100","","","","","",""
"00940","00940","E/S of Jefferson N of 22nd","","44.035388700","-123.101216500","","","","","",""
"00941","00941","W/S of Jefferson N of 22nd","","44.035601700","-123.101336100","","","","","",""
"00945","00945","N/S of 28th W of Jefferson","","44.027278600","-123.101952000","","","","","",""
"00946","00946","N/S of 28th W of Monroe","","44.027267900","-123.104419000","","","","","",""
"00947","00947","N/S of 28th W of Friendly","","44.027700400","-123.106109100","","","","","",""
"00948","00948","N/S of 28th E of Tyler","","44.027726100","-123.110513200","","","","","",""
"00949","00949","S/S of 28th W of Jefferson","","44.027223800","-123.101875100","","","","","",""
"00951","00951","S/S of 24th E of Polk","","44.033007800","-123.111699900","","","","","",""
"00952","00952","S/S of 24th E of Van Buren","","44.032992800","-123.108997300","","","","","",""
"00953","00953","S/S of 24th E of Adams","","44.032975500","-123.106595600","","","","","",""
"00954","00954","S/S of 24th W of Madison","","44.032957600","-123.102828800","","","","","",""
"00955","00955","E/S of Jefferson N of 18th","","44.040598600","-123.101228000","","","","","",""
"00956","00956","E/S of Jefferson S of 15th","","44.043175400","-123.101223700","","","","","",""
"00957","00957","W/S of Jefferson S of 15th","","44.043115400","-123.101338700","","","","","",""
"00958","00958","E/S of Hwy 99 N of Bethel","","44.080848300","-123.151784300","","","","","",""
"00959","00959","W/S of Hwy 99 of Lakewood","","44.079886900","-123.151435200","","","","","",""
"00960","00960","E/S of Hwy 99 S of Bethel","","44.078228400","-123.149893000","","","","","",""
"00961","00961","E/S of Hwy 99 N of Fairfield","","44.075185700","-123.147440300","","","","","",""
"00962","00962","W/S of Jacobs S of Pattison","","44.078058800","-123.150589100","","","","","",""
"00963","00963","W/S of Hwy 99 S of Royal","","44.069438800","-123.142433600","","","","","",""
"00964","00964","W/S of Hwy 99 N of Side","","44.066712600","-123.139874200","","","","","",""
"00965","00965","E/S of Hwy 99 N of Elmira","","44.067020500","-123.139793700","","","","","",""
"00966","00966","W/S of Hwy 99 S of Roosevelt","","44.063311500","-123.136732300","","","","","",""
"00967","00967","E/S of Hwy 99 N of Roosevelt","","44.064249800","-123.137186100","","","","","",""
"00968","00968","W/S of Hwy 99 S of 5th","","44.054287200","-123.128440300","","","","","",""
"00969","00969","E/S of Hwy 99 N of 5th","","44.055953900","-123.129328000","","","","","",""
"00970","00970","W/S of Hwy 99 N of 7th","","44.052088100","-123.124558800","","","","","",""
"00971","00971","N/S of 6th W of Garfield","","44.053757500","-123.124770200","","","","","",""
"00987","00987","N/S of 11th E of Olive","","44.047701900","-123.093894900","","99901","","","",""
"00988","00988","N/S of 11th W of Lincoln","","44.047762600","-123.097634800","","","","","",""
"00989","00989","N/S of 11th E of Jefferson","","44.047763800","-123.101634100","","","","","",""
"00990","00990","N/S of 11th W of Monroe","","44.047760600","-123.105247700","","","","","",""
"00991","00991","N/S of 11th W of Jackson","","44.047771300","-123.108297200","","","","","",""
"00992","00992","N/S of 11th W of Polk","","44.047771000","-123.112862800","","","","","",""
"00993","00993","N/S of 11th W of Almaden","","44.047772900","-123.116182800","","","","","",""
"00994","00994","N/S of 11th W of Chambers","","44.047805100","-123.118571000","","","","","",""
"00995","00995","N/S of 11th E of Hayes","","44.047835800","-123.120864400","","","","","",""
"01020","01020","E/S of Bertelsen N of 13th","","44.045460700","-123.162384300","","","","","",""
"01021","01021","E/S of Bertelsen S of Churchill","","44.043618000","-123.162385800","","","","","",""
"01022","01022","W/S of Bertelsen S of 13th","","44.043211600","-123.162544500","","","","","",""
"01023","01023","E/S of Bertelsen N of Aldron","","44.040944800","-123.162395100","","","","","",""
"01024","01024","W/S of Bertelsen N of Aldron Ct","","44.040711900","-123.162546800","","","","","",""
"01025","01025","W/S of Bertelsen N of 18th","","44.039115600","-123.162537700","","","","","",""
"01026","01026","E/S of Bertelsen S of Langton","","44.038730300","-123.162417500","","","","","",""
"01027","01027","W/S of Garfield S of 12th","","44.046275100","-123.123253100","","","","","",""
"01028","01028","S/S of 13th E of Hayes","","44.045509300","-123.121409000","","","","","",""
"01029","01029","S/S of 13th E of Chambers","","44.045501700","-123.116548200","","","","","",""
"01031","01031","S/S of 13th E of Polk","","44.045492500","-123.112224300","","","","","",""
"01032","01032","S/S of 13th W of Jackson","","44.045474800","-123.108101100","","","","","",""
"01034","01034","S/S of 13th E of Monroe","","44.045480600","-123.103654300","","","","","",""
"01035","01035","S/S of 13th W of Washington","","44.045475900","-123.100107800","","","","","",""
"01036","01036","S/S of 13th E of Lincoln","","44.045466800","-123.096671600","","","","","",""
"01037","01037","S/S of 13th E of High","","44.045500400","-123.087731900","","","","","",""
"01038","01038","S/S of 13th E of Ferry","","44.045487300","-123.084721300","","","","","",""
"01039","01039","S/S of 13th E of Hilyard","","44.045499400","-123.081442300","","","","","",""
"01040","01040","University of Oregon Station - Bay B","","44.045915600","-123.078574300","","99905","","","","B"
"01043","01043","N/S of 11th W of Alder","","44.047761600","-123.081303300","","","","","",""
"01047","01047","N/S of 11th W of High","","44.047762800","-123.089184300","","","","","",""
"01049","01049","N/S of 8th W of High","","44.051013000","-123.088539600","","","","","",""
"01050","01050","N/S of 8th W of Oak","","44.051049600","-123.091896800","","","","","",""
"01054","01054","S/S of 5th E of Washington","","44.054283700","-123.099787700","","","","","",""
"01055","01055","N/S of 5th W of Lawrence","","44.054406200","-123.099345300","","","","","",""
"01057","01057","N/S of 5th W of Olive","","44.054369000","-123.094527900","","","","","",""
"01058","01058","N/S of 5th E of Willamette","","44.054396600","-123.092009600","","","","","",""
"01060","01060","S/S of 2nd W of Mill","","44.057601100","-123.087285000","","","","","",""
"01061","01061","N/S of 3rd E of High","","44.056479400","-123.087953300","","","","","",""
"01062","01062","W/S of Pearl N of 4th","","44.055874600","-123.089673500","","","","","",""
"01063","01063","W/S of Pearl N of 5th","","44.054633800","-123.089696400","","","","","",""
"01064","01064","W/S of Pearl N of 8th","","44.051591200","-123.089763600","","","","","",""
"01067","01067","S/S of Franklin Blvd E of Onyx","","44.046989300","-123.072792600","","","","","",""
"01068","01068","N/S of Franklin Blvd W of Agate","","44.046809400","-123.070486900","","","","","",""
"01072","01072","N/S of Franklin Blvd W of Walnut","","44.045072800","-123.062061100","","","","","",""
"01073","01073","S/S of Franklin Blvd E of Walnut","","44.044617600","-123.061074600","","","","","",""
"01075","01075","W/S of Coburg N of Club Rd","","44.059746100","-123.082609100","","","","","",""
"01077","01077","W/S of Pearl S of 13th","","44.045194000","-123.089693300","","","","","",""
"01078","01078","W/S of Pearl S of 15th","","44.043061600","-123.089701000","","","","","",""
"01079","01079","W/S of Pearl S of 17th","","44.040818000","-123.089729400","","","","","",""
"01080","01080","W/S of Amazon Pkwy S of 19th","","44.038273600","-123.089743400","","","","","",""
"01081","01081","W/S of Amazon Pkwy S of 24th","","44.033030100","-123.088479000","","","","","",""
"01085","01085","N/S of 29th W of Mill","","44.026237600","-123.087217200","","","","","",""
"01086","01086","S/S of 29th W of Mill","","44.026158500","-123.087178100","","","","","",""
"01087","01087","N/S of 29th E of Oak","","44.026234300","-123.089566200","","","","","",""
"01088","01088","S/S of 29th E of Willamette","","44.026150100","-123.089856800","","","","","",""
"01089","01089","N/S of 30th W of Alder","","44.024254500","-123.080924100","","","","","",""
"01090","01090","S/S of 30th E of Alder","","44.024116400","-123.079818500","","","","","",""
"01091","01091","S/S of 30th E of Harris","","44.024141600","-123.077402200","","","","","",""
"01092","01092","N/S of 30th E of University","","44.024280600","-123.074849500","","","","","",""
"01093","01093","S/S of 30th E of University","","44.024111900","-123.074687300","","","","","",""
"01096","01096","N/S of 30th E of Eldon Schafer","","44.013825700","-123.027903900","","","","","",""
"01097","01097","S/S of 30th W of Eldon Schafer","","44.013757400","-123.029583300","","","","","",""
"01099","01099","W/S of Hilyard N of 33rd","","44.021192300","-123.081705700","","","","","",""
"01129","01129","S/S of 24th W of Hilyard","","44.033395100","-123.082663300","","","","","",""
"01156","01156","W/S of Old Franklin N of 19th","","44.042262100","-123.029684300","","","","","",""
"01157","01157","E/S of Old Franklin S of 19th","","44.041343100","-123.029169200","","","","","",""
"01158","01158","W/S of Old Franklin S of 20th","","44.038087900","-123.027659300","","","","","",""
"01159","01159","E/S of Old Franklin S of 20th","","44.037935400","-123.027414800","","","","","",""
"01160","01160","E/S of Old Franklin S of Nugget","","44.035166900","-123.026902300","","","","","",""
"01161","01161","W/S of Old Franklin S of Nugget","","44.035312300","-123.027072300","","","","","",""
"01162","01162","W/S of McVay Hwy N of Bloomberg","","44.018366700","-123.025867600","","","","","",""
"01163","01163","E/S of McVay Hwy N of Fir Cove Ave","","44.017678500","-123.025408000","","","","","",""
"01164","01164","E/S of Olive, S of 16th","","44.041955100","-123.094201000","","","","","",""
"01165","01165","E/S of Olive N of 15th","","44.043672500","-123.094242800","","","","","",""
"01169","01169","E/S of Hilyard N of 15th","","44.043669700","-123.082090200","","","","","",""
"01172","01172","W/S of Patterson S of 13th","","44.045141800","-123.083718900","","","","","",""
"01173","01173","W/S of Patterson S of 15th","","44.042985400","-123.083729800","","","","","",""
"01174","01174","W/S of Patterson N of 17th","","44.041298900","-123.083735600","","","","","",""
"01179","01179","E/S of High S of 8th","","44.050617800","-123.088049000","","","","","",""
"01180","01180","E/S of High N of 7th","","44.052628300","-123.088074500","","","","","",""
"01182","01182","E/S of Olive N of 11th","","44.047894100","-123.094194500","","99901","","","",""
"01184","01184","S/S of 10th W of Pearl","","44.048748900","-123.090237800","","","","","",""
"01185","01185","E/S of Oak S of 7th","","44.051466600","-123.091160000","","","","","",""
"01186","01186","S/S of 7th W of Washington","","44.052074400","-123.100603800","","","","","",""
"01187","01187","S/S of 7th E of Lincoln","","44.052080600","-123.096686100","","","","","",""
"01189","01189","S/S of 10th E of Lincoln","","44.048795900","-123.096680600","","","","","",""
"01191","01191","E/S of Hilyard N of 26th","","44.030767000","-123.081465100","","","","","",""
"01194","01194","W/S of Jefferson S of 6th","","44.052905100","-123.101933800","","","","","",""
"01199","01199","E/S of 5th S of B","","44.047727500","-123.019470500","","","","","",""
"01200","01200","E/S of Bertelsen S of 11th","","44.047137700","-123.162382400","","","","","",""
"01201","01201","E/S of Scenic N of Cinderella","","44.118490100","-123.129682800","","","","","",""
"01211","01211","N/S of Green Acres E of Delta","","44.093700700","-123.096164100","","","","","",""
"01212","01212","S/S of Green Acres E of Delta Hwy","","44.093564800","-123.096239100","","","","","",""
"01213","01213","E/S of Oak S of Broadway","","44.049678000","-123.091111700","","","","","",""
"01214","01214","N/S of 30th E of Spring Blvd","","44.023099200","-123.059810000","","","","","",""
"01215","01215","Seneca Park & Ride","","44.049085700","-123.141270500","","","","","",""
"01216","01216","S/S of 30th W of Forest Blvd","","44.017151400","-123.051815600","","","","","",""
"01221","01221","W/S of Jefferson S of 12th","","44.046359600","-123.101942600","","","","","",""
"01222","01222","E/S of Amazon Prkwy N of 24th","","44.033937100","-123.088763200","","","","","",""
"01224","01224","W/S of Old Franklin S of 19th","","44.041011200","-123.029138400","","","","","",""
"01227","01227","N/S of Main W of 59th","","44.045746600","-122.924668600","","","","","",""
"01228","01228","E/S of Old Franklin N of 19th","","44.043249800","-123.029990500","","","","","",""
"01230","01230","E/S of Goodpstre Is S of VR Dr","","44.070262200","-123.108091600","","","","","",""
"01243","01243","S/S of 10th E of Washington","","44.048791600","-123.100091400","","","","","",""
"01244","01244","E/S of High N of 4th","","44.055622600","-123.088080800","","","","","",""
"01245","01245","W/S of Oakway N of Fairway","","44.067197000","-123.078661300","","","","","",""
"01246","01246","W/S of Oakway S of Eastwood","","44.064398100","-123.078513600","","","","","",""
"01248","01248","E/S of River Rd N of Maynard","","44.087319000","-123.124409600","","","","","",""
"01264","01264","E/S of Donald S of 40th","","44.011108100","-123.087096900","","","","","",""
"01265","01265","E/S of Donald S of 43rd","","44.008100900","-123.087175900","","","","","",""
"01276","01276","S/S of Crescent E of Norkenzie","","44.092907300","-123.087133200","","","","","",""
"01277","01277","S/S of Crescent E of Tulip","","44.093200600","-123.085173600","","","","","",""
"01278","01278","S/S of Crescent W of Gilham","","44.092838900","-123.081454600","","","","","",""
"01279","01279","E/S of Gilham S of Brewer","","44.085994600","-123.081227100","","","","","",""
"01280","01280","E/S of Gilham S of Jeppesen","","44.083263300","-123.081069500","","","","","",""
"01281","01281","W/S of Coburg N of Jeppesen","","44.083537500","-123.067691200","","","","","",""
"01291","01291","W/S of Willagillespie S of VR Dr","","44.068665500","-123.100434100","","","","","",""
"01292","01292","E/S of Willagillespie S of VR Dr","","44.068664000","-123.100269000","","","","","",""
"01293","01293","W/S of Willagillespie N of Country Club","","44.065229100","-123.097567000","","","","","",""
"01294","01294","N/S of Willagillespie W of Country Club (OML)","","44.065381800","-123.097649200","","","","","",""
"01295","01295","S/S of Country Club W of Oregon Medical Group","","44.064271500","-123.094251000","","","","","",""
"01296","01296","N/S of Country Club W of First American Title","","44.064364000","-123.093957000","","","","","",""
"01297","01297","S/S of Country Club W of Eugene CC","","44.063278200","-123.088572300","","","","","",""
"01298","01298","N/S of Country Club W of Eugene CC","","44.063418500","-123.088515100","","","","","",""
"01299","01299","S/S of Country Club W of Southwood","","44.062308000","-123.085809100","","","","","",""
"01300","01300","N/S of Country Club W of Southwood","","44.062091900","-123.085040700","","","","","",""
"01301","01301","W/S of Pearl N of 10th","","44.049332700","-123.089809900","","","","","",""
"01305","01305","E/S of Oak S of 16th","","44.042080200","-123.091141400","","","","","",""
"01306","01306","E/S of Oak S of 14th","","44.044295300","-123.091169000","","","","","",""
"01307","01307","E/S of Oak S of 12th","","44.046240900","-123.091146200","","","","","",""
"01310","01310","VRC Sta, Bay A--inbound","","44.067295800","-123.106194300","","99909","","","","A"
"01313","01313","W/S of Charnelton N of 6th","","44.053403900","-123.095846900","","","","","",""
"01314","01314","W/S of Goodpstre Is S of VR Dr","","44.069551300","-123.108229400","","","","","",""
"01315","01315","E/S of VR Way N of VR Inn","","44.065676700","-123.103007000","","","","","",""
"01316","01316","E/S of VR Way S of VR Dr","","44.068609100","-123.103054000","","","","","",""
"01318","01318","S/S of Irving E of Newcastle","","44.103424600","-123.135895800","","","","","",""
"01320","01320","E/S of Oak S of 17th","","44.040545600","-123.091272000","","","","","",""
"01325","01325","E/S of River Rd N of Santa Clara","","44.100783700","-123.130103000","","","","","",""
"01328","01328","N/S of Main E of 63rd","","44.045736300","-122.915437200","","","","","",""
"01330","01330","S/S of MLK Blvd E of Centennial Lp","","44.059559000","-123.078386200","","","","","",""
"01333","01333","W/S of Alder N of 17th","","44.041316300","-123.080248200","","","","","",""
"01344","01344","E/S of Oak S of 10th","","44.048504300","-123.091151400","","","","","",""
"01396","01396","W/S of Bertelsen S of 11th","","44.047375700","-123.162502000","","","","","",""
"01403","01403","E/S of Hilyard N of 30th","","44.024797300","-123.081466500","","","","","",""
"01404","01404","W/S of Hilyard N of 30th","","44.024617600","-123.081723700","","","","","",""
"01405","01405","E/S of Hilyard N of 32nd","","44.022460600","-123.081458100","","","","","",""
"01406","01406","Amazon Station, Bay C","","44.026602900","-123.084242700","","99903","","","","C"
"01407","01407","Amazon Station, Bay D","","44.026464600","-123.084250800","","99903","","","","D"
"01409","01409","Amazon Station, Bay A","","44.026660800","-123.084488700","","99903","","","","A"
"01410","01410","N/S of 19th E of Oak","","44.039020700","-123.091012600","","","","","",""
"01420","01420","E/S of Goodpstre Is N of Alexander","","44.079747500","-123.109990200","","","","","",""
"01421","01421","W/S of Goodpstre Is S of Alexander","","44.079292500","-123.109170500","","","","","",""
"01422","01422","E/S of Old Franklin S of Nugget Way","","44.027364300","-123.027235100","","","","","",""
"01423","01423","W/S of Old Franklin S of Nugget Way","","44.027054800","-123.027422300","","","","","",""
"01424","01424","N/S of 24th E of Fillmore Street","","44.033130600","-123.116046200","","","","","",""
"01425","01425","S/S of 24th W of Taylor","","44.033023600","-123.114725100","","","","","",""
"01426","01426","E/S of Chambers N of 28th","","44.027881500","-123.117730700","","","","","",""
"01427","01427","N/S of 28th E of Almaden","","44.027748800","-123.114062100","","","","","",""
"01438","01438","W/S of Bertelsen S of 13th","","44.044942900","-123.162580500","","","","","",""
"01444","01444","S/S of Main E of 69th","","44.045533600","-122.903309500","","","","","",""
"01445","01445","S/S of Main E of 48th","","44.045652800","-122.947150900","","","","","",""
"01447","01447","E/S of Coburg S of Oakmont","","44.065332500","-123.074640100","","","","","",""
"01475","01475","S/S of 2nd E of Chambers","","44.057457800","-123.116757800","","","","","",""
"01479","01479","N/S of 2nd W of Blair","","44.057508300","-123.111803400","","","","","",""
"01480","01480","W/S of Blair S of 2nd","","44.057201500","-123.110947400","","","","","",""
"01481","01481","E/S of Blair N of 4th","","44.055649000","-123.109265700","","","","","",""
"01482","01482","W/S of Blair N of 4th","","44.055570600","-123.109370800","","","","","",""
"01489","01489","S/S of South A E of 7th","","44.045217000","-123.016030500","","","","","",""
"01490","01490","S/S of South A E of 10th","","44.044860300","-123.012466400","","","","","",""
"01491","01491","S/S of South A E of 11th","","44.044470500","-123.008161600","","","","","",""
"01496","01496","N/S of Main E of 8th","","44.046222400","-123.015076700","","","","","",""
"01497","01497","W/S of 5th S of B","","44.047619000","-123.019605400","","","","","",""
"01498","01498","S/S of 13th W of Oak","","44.045485300","-123.091814100","","","","","",""
"01504","01504","E/S of Gateway S of North Access","","44.076718900","-123.042027400","","","","","",""
"01507","01507","W/S of Gateway S of North Access","","44.075844900","-123.042355400","","","","","",""
"01508","01508","Gateway Sta.-Bay B (to ES)","","44.073139100","-123.042685200","","99907","","","","B"
"01509","01509","Gateway Sta.-Bay A (to Spfd)","","44.073238400","-123.042822900","","99907","","","","A"
"01510","01510","E/S of Chambers N of 2nd","","44.057960400","-123.117233000","","","","","",""
"01513","01513","S/S of 1st W of Grimes","","44.058192500","-123.158400500","","","","","",""
"01514","01514","S/S of 1st E of Grimes","","44.058384100","-123.155160600","","","","","",""
"01525","01525","W/S of Hwy 99 S of Fairfield","","44.074180500","-123.146884300","","","","","",""
"01526","01526","W/S of Hwy 99 S of Pattison","","44.078026500","-123.150109100","","","","","",""
"01540","01540","E/S of Olive S of 12th","","44.046382400","-123.094247800","","","","","",""
"01541","01541","N/S of 11th E of Commerce","","44.048174200","-123.166757000","","","","","",""
"01542","01542","S/S of 11th E of Commerce","","44.047972600","-123.166760500","","","","","",""
"01546","01546","E/S of Country Club S of Womenscare Clinic","","44.064165400","-123.091514000","","","","","",""
"01547","01547","E/S of River Rd S of Division","","44.098157100","-123.128902300","","","","","",""
"01548","01548","E/S of Amazon Pkwy S of 19th","","44.038014700","-123.089655300","","","","","",""
"01550","01550","University of Oregon Station - South","","44.044598700","-123.078722300","","99906","","","",""
"01554","01554","N/S of Elmira E of Berntzen","","44.066248500","-123.157756900","","","","","",""
"01555","01555","S/S of Elmira W of Berntzen","","44.066233200","-123.158321900","","","","","",""
"01556","01556","N/S of 11th W of Terry","","44.048450600","-123.188825200","","","","","",""
"01557","01557","S/S of 11th E of Terry","","44.048233900","-123.187668000","","","","","",""
"01560","01560","University of Oregon Station - Bay F","","44.046951400","-123.078632100","","99905","","","","F"
"01590","01590","E/S Gateway Street S of Postal Way","","44.078184200","-123.041829200","","","","","",""
"01591","01591","W/S Gateway Street S of Postal","","44.078120800","-123.042074300","","","","","",""
"01608","01608","E/S of Donald S of Mill","","44.012829800","-123.087295400","","","","","",""
"01609","01609","E/S of Donald N of 37th","","44.015769200","-123.087722800","","","","","",""
"01610","01610","E/S of Pearl S of 34th Pl","","44.017868800","-123.088510700","","","","","",""
"01611","01611","N/S of 34th Pl E of Donald","","44.019193700","-123.089332000","","","","","",""
"01612","01612","E/S of Donald N of 33rd","","44.021328500","-123.090092200","","","","","",""
"01621","01621","N/S of Roosevelt W of Chambers","","44.063421000","-123.121357400","","","","","",""
"01622","01622","S/S of Roosevelt W of Chambers","","44.063150800","-123.122137900","","","","","",""
"01625","01625","S/S of Elmira W of Archie","","44.066189500","-123.154986500","","","","","",""
"01627","01627","W/S of Gilham N of Jeppesen Ac","","44.083603600","-123.081332400","","","","","",""
"01644","01644","W/S of Goodpstre Is Sof Boulders","","44.081753200","-123.111951900","","","","","",""
"01645","01645","E/S of Goodpasture Is N of Wimbledon","","44.081829600","-123.111739100","","","","","",""
"01668","01668","N/S of 29th W of Willamette","","44.026234000","-123.093932200","","","","","",""
"01669","01669","N/S of 29th W of Charnelton","","44.026233600","-123.096476200","","","","","",""
"01690","01690","S/S of 28th W of Almaden","","44.027678000","-123.113782900","","","","","",""
"01692","01692","S/S of 28th E of McLean","","44.027654300","-123.109605200","","","","","",""
"01693","01693","S/S of 28th E of Adams","","44.027617000","-123.106727700","","","","","",""
"01694","01694","S/S of 28th E of Monroe","","44.027189100","-123.103737100","","","","","",""
"01696","01696","E/S of Echo Hollow S of Barger","","44.084147400","-123.168031200","","","","","",""
"01710","01710","N/S of Marcola Rd E of 19th","","44.064563400","-122.995239900","","","","","",""
"01712","01712","N/S of Marcola E of 22nd","","44.064552600","-122.992443100","","","","","",""
"01713","01713","S/S of Marcola E of 19th","","44.064393300","-122.995199400","","","","","",""
"01725","01725","W/S of Old Coburg Road S of Old Coburg Road","","44.089224800","-123.050033800","","","","","",""
"01731","01731","W/S of N Game Farm Road S of Old Coburg Road","","44.090672700","-123.048457100","","","","","",""
"01733","01733","E/S of Gateway N of Game Farm Rd E","","44.086278200","-123.042614600","","","","","",""
"01740","01740","W/S of Gateway N of Game Farm Rd E","","44.086287900","-123.043002300","","","","","",""
"01745","01745","N/S of Main W of 30th","","44.045931200","-122.983486500","","","","","",""
"01776","01776","Thurston Sta, Bay B (outb.)","","44.045551300","-122.929653400","","99908","","","","B"
"01800","01800","S/S of Silver E of Sterling East","","44.095561000","-123.131521500","","","","","",""
"01805","01805","W/S of Old Franklin N of Seavey Loop","","44.013435100","-123.018433800","","","","","",""
"01806","01806","E/S of Old Franklin S of Seavey Loop","","44.012759600","-123.018291400","","","","","",""
"01836","01836","N/S of Irvington Rd W of Willowbrook","","44.115846400","-123.153659600","","","","","",""
"01837","01837","W/S of Arrowhead S of Irvington","","44.115237800","-123.157191500","","","","","",""
"01852","01852","E/S of Hwy 99 N of Prairie Rd","","44.089224700","-123.158854100","","","","","",""
"01853","01853","W/S of Hwy 99 S of Prairie Rd","","44.088068300","-123.158094700","","","","","",""
"01854","01854","E/S of Old Franklin N of Dw 512","","44.033060100","-123.026655300","","","","","",""
"01855","01855","W/S of Old Franklin N of Dw 512","","44.033086500","-123.026816600","","","","","",""
"01862","01862","W/s of Danebo N of Roosevelt","","44.066562100","-123.178228600","","","","","",""
"01871","01871","N/S of W 11th E of Danebo","","44.048277600","-123.177720000","","","","","",""
"01872","01872","E/S of Terry S of Avalon","","44.077257800","-123.188150300","","","","","",""
"01873","01873","E/S of Terry S of Summerfield Estates","","44.082166700","-123.188148800","","","","","",""
"01874","01874","W/S of Terry S of Summerfield Estates","","44.082152100","-123.188305800","","","","","",""
"01875","01875","W/S of Terry S of Woodland Park Estates","","44.080009700","-123.188298300","","","","","",""
"01876","01876","W/S of Terry S of Avalon","","44.076977600","-123.188287600","","","","","",""
"01877","01877","W/S of Terry S of Donohoe (Kalapuya HS)","","44.073831800","-123.188330300","","","","","",""
"01879","01879","W/S of Danebo S of Pacific St","","44.056986600","-123.178301300","","","","","",""
"01880","01880","W/S of Danebo N of Isabelle","","44.051442800","-123.178303500","","","","","",""
"01881","01881","E/S of Danebo S of Isabelle St","","44.050818600","-123.178136600","","","","","",""
"01882","01882","E/S of Danebo N of Pacific St","","44.057467300","-123.178156000","","","","","",""
"01893","01893","W/S of Arrowhead N of Ginger","","44.111636100","-123.156568100","","","","","",""
"01894","01894","W/S of Arrowhead N of Cinnamon","","44.107963000","-123.155717800","","","","","",""
"01895","01895","W/S of Arrowhead N of Dry Crk","","44.106238800","-123.155032600","","","","","",""
"01896","01896","S/S of Irving E of Arrowhead","","44.103226800","-123.152624500","","","","","",""
"01897","01897","S/S of 11th W of Commerce (Walmart)","","44.047986400","-123.170061900","","","","","",""
"01898","01898","E/S of Danebo N of Isabelle","","44.054315500","-123.178169800","","","","","",""
"01899","01899","W/S of Danebo 1st stop N of Isabelle","","44.053741200","-123.178306800","","","","","",""
"01900","01900","N/S of N Park W/S of Rossmore","","44.079872600","-123.140490500","","","","","",""
"01901","01901","E/S of N Park S/S of Cornwall","","44.080782900","-123.144176000","","","","","",""
"01902","01902","E/S of N Park S of Kelly","","44.083329700","-123.144155600","","","","","",""
"01903","01903","E/S of Grove N of Armstrong","","44.093545600","-123.138290900","","","","","",""
"01904","01904","E/S of N. Park Av. N of Hatton","","44.086694600","-123.144126300","","","","","",""
"01910","01910","E/S of Shadowview S of Crescent","","44.091762400","-123.060005900","","","","","",""
"01911","01911","S/S of Crescent E of Grand Cayman","","44.093031200","-123.056373500","","","","","",""
"01912","01912","S/S of Crescent E of Martinique","","44.094340300","-123.052434700","","","","","",""
"01919","01919","W/S of Shadowview S of Crescent","","44.091710300","-123.060155700","","","","","",""
"01920","01920","E/s of N. Park s/s of Maclay","","44.079676500","-123.137889800","","","","","",""
"01921","01921","E/S of Danebo S of Royal Ave.","","44.068281800","-123.178098800","","","","","",""
"01922","01922","E/S of Danebo N of Roosevelt","","44.065479500","-123.178089300","","","","","",""
"01923","01923","E/S of Echo Hollow north of Royal","","44.071076300","-123.168085500","","","","","",""
"01925","01925","W/S of Danebo S of Royal","","44.068643100","-123.178227800","","","","","",""
"01932","01932","W/S of Grove N of Elm","","44.089777100","-123.138363200","","","","","",""
"01934","01934","N/S of Howard W of Grove","","44.088035800","-123.138813200","","","","","",""
"01935","01935","N/S of Howard W of Maywood","","44.088056600","-123.140532900","","","","","",""
"01936","01936","W/S of N Park Ave N of Hatton","","44.086163200","-123.144182100","","","","","",""
"01937","01937","W/S of N Park Avenue N of Virgil","","44.082820800","-123.144195200","","","","","",""
"01938","01938","W/S of N Park Avenue N of Nadine","","44.080835500","-123.144211300","","","","","",""
"01939","01939","E/S of Gilham N of Terresa Ave","","44.090231600","-123.081195000","","","","","",""
"01940","01940","E/S of Gilham N of Holly","","44.091991800","-123.080950800","","","","","",""
"01941","01941","W/S of Gilham S of Holly","","44.091658800","-123.081294600","","","","","",""
"01942","01942","W/S of County Farm Rd S of Lakeview","","44.098567200","-123.067825000","","","","","",""
"01943","01943","E/S of County Farm Rd S of Lakeview","","44.099193800","-123.067718900","","","","","",""
"01944","01944","S/S of County Farm Rd W of Fox Meadow Rd","","44.105507300","-123.062188300","","","","","",""
"01945","01945","N/S of County Farm Rd W of Fox Meadow Rd","","44.105550100","-123.061940800","","","","","",""
"01946","01946","S/S of N Park Ave E of Rossmore","","44.079814300","-123.140087700","","","","","",""
"01947","01947","N/S of Howard W of Alderwood","","44.088079100","-123.143397600","","","","","",""
"01948","01948","W/S of County Farm Rd S of Parkview","","44.097200400","-123.067817600","","","","","",""
"01949","01949","E/S of County Farm Rd N of Parkview","","44.097673100","-123.067707600","","","","","",""
"01950","01950","W/S of N Park Ave S of Maclay Dr","","44.079474000","-123.137929100","","","","","",""
"01954","01954","E/S of County Farm Rd N of Dale Ave","","44.101564600","-123.067595500","","","","","",""
"01955","01955","W/S of County Farm Rd S of Dale Ave","","44.101072300","-123.067795000","","","","","",""
"01956","01956","S/S of W 29th W of Willamette","","44.026147400","-123.092888900","","","","","",""
"01957","01957","S/S of W 29th W of Charnelton","","44.026137800","-123.096428200","","","","","",""
"01958","01958","N/S of 24th E of Madison","","44.033003600","-123.102561400","","","","","",""
"01959","01959","N/S of 24th E of Jackson","","44.033077600","-123.107879100","","","","","",""
"01960","01960","N/S of 24th W of Polk","","44.033108300","-123.112589800","","","","","",""
"01961","01961","E/S of Garfield N of 10th","","44.048749800","-123.122936400","","","","","",""
"01962","01962","W/S of Garfield N of 10th","","44.049245800","-123.123097100","","","","","",""
"01963","01963","E/S of Chambers N of 5th","","44.054829500","-123.118437100","","","","","",""
"01964","01964","W/S of Chambers S of 2nd","","44.057127500","-123.117563300","","","","","",""
"01965","01965","E/S of Chambers N of 7th","","44.052571600","-123.118247600","","","","","",""
"01966","01966","W/S of Chambers S of 5th","","44.054060000","-123.118743600","","","","","",""
"02000","02000","W/S of Hwy 99 S of Barger","","44.083976000","-123.154400800","","","","","",""
"02001","02001","S/S of Country Club E of 520 dw","","44.063997900","-123.091341400","","","","","",""
"02006","02006","N/S of Spring Crk W of Spring Meadows","","44.124277800","-123.138659500","","","","","",""
"02019","02019","S/S of 1st E of Bertelsen","","44.058199500","-123.161928000","","","","","",""
"02020","02020","S/S of 1st W of BiMart Warehouse","","44.058806300","-123.149119700","","","","","",""
"02021","02021","S/S of 1st W of Seneca","","44.058807100","-123.145536900","","","","","",""
"02022","02022","W/S of Seneca S of 1st Ave","","44.056975800","-123.140629200","","","","","",""
"02023","02023","W/S of Seneca N of 7th","","44.052834300","-123.140685800","","","","","",""
"02024","02024","W/S of Seneca N of 11th","","44.050483900","-123.140702200","","","","","",""
"02031","02031","E/S of Terry S of Woodland Park","","44.080067700","-123.188144600","","","","","",""
"02032","02032","E/S of Hwy 99 N of Royal","","44.070596000","-123.143127800","","","","","",""
"02037","02037","W/S of Echo Hollow N of Knoop","","44.072781800","-123.168186300","","","","","",""
"02038","02038","E/S of Echo Hollow N of Knoop","","44.072685900","-123.168051400","","","","","",""
"02039","02039","S/S of Elmira E of Hope","","44.066257000","-123.161426500","","","","","",""
"02042","02042","S/S of Chad E of Coburg Rd","","44.090080300","-123.065275500","","","","","",""
"02043","02043","E/S of Shadowview N of Chad","","44.090263500","-123.060852500","","","","","",""
"02045","02045","S/S of Crescent E/S of Coburg Rd","","44.092895400","-123.065712700","","","","","",""
"02046","02046","N/S of Chad W of Shadowview","","44.090115900","-123.063132900","","","","","",""
"02047","02047","N/S of Chad E of Coburg Rd","","44.090219900","-123.065371500","","","","","",""
"02051","02051","N/S of Crescent E of Suzanne Way","","44.092935700","-123.063822000","","","","","",""
"02056","02056","S/S of Crescent W of Shadowview","","44.092169100","-123.061363900","","","","","",""
"02062","02062","N/S of Crescent E of Driveway","","44.092951300","-123.065910900","","","","","",""
"02070","02070","S/S of 11th E of Willow Crk","","44.048045000","-123.177224800","","","","","",""
"02081","02081","N/S of Chad W of Old Coburg Rd","","44.087024300","-123.052741100","","","","","",""
"02082","02082","N/S of Chad E of Shadowview","","44.088743300","-123.058956600","","","","","",""
"02087","02087","N/S of Commons W of Garden Way","","44.060787300","-123.053965100","","","","","",""
"02090","02090","W/S of Commons N of Kinsrow","","44.060198700","-123.056226900","","","","","",""
"02091","02091","N/S of Kinsrow W of McKenna","","44.058343200","-123.057479000","","","","","",""
"02094","02094","S/S of Aerial W of N Clarey","","44.086090800","-123.162197400","","","","","",""
"02095","02095","S/S of Wagner E of Cubit","","44.086091800","-123.167425800","","","","","",""
"02097","02097","N/S of 11th W of Commerce (Target)","","44.048191800","-123.170169800","","","","","",""
"02098","02098","E/S of Coburg Rd, N of Kinney Lp","","44.094485300","-123.067680100","","","","","",""
"02101","02101","Eugene Station, Bay A","","44.048113600","-123.094008600","","99901","","","","A"
"02102","02102","Eugene Station, Bay B","","44.047991800","-123.093795100","","99901","","","","B"
"02103","02103","Eugene Station, Bay C","","44.047871400","-123.093681000","","99901","","","","C"
"02105","02105","Eugene Station, Bay E","","44.048118600","-123.093795800","","99901","","","","E"
"02106","02106","Eugene Station, Bay F","","44.048246900","-123.093972900","","99901","","","","F"
"02107","02107","Eugene Station, Bay G","","44.048338200","-123.094108900","","99901","","","","G"
"02109","02109","Eugene Station, Bay I","","44.048515400","-123.093919100","","99901","","","","I"
"02110","02110","Eugene Station, Bay J","","44.048275700","-123.093739500","","99901","","","","J"
"02111","02111","Eugene Station, Bay K","","44.048166300","-123.093666600","","99901","","","","K"
"02112","02112","Eugene Station, Bay L","","44.048137700","-123.093399100","","99901","","","","L"
"02113","02113","Eugene Station, Bay M","","44.048009900","-123.093180100","","99901","","","","M"
"02114","02114","Eugene Station, Bay N","","44.048046900","-123.092976100","","99901","","","","N"
"02115","02115","Eugene Station, Bay O","","44.048133400","-123.092988800","","99901","","","","O"
"02116","02116","Eugene Station, Bay P","","44.048140300","-123.093244300","","99901","","","","P"
"02117","02117","Eugene Station, Bay Q","","44.048265300","-123.093448700","","99901","","","","Q"
"02118","02118","Eugene Station, Bay R","","44.048391700","-123.093663600","","99901","","","","R"
"02119","02119","Eugene Station, Bay S","","44.048653100","-123.093744300","","99901","","","","S"
"02120","02120","Eugene Station, Bay T","","44.048773600","-123.093296500","","99901","","","","T"
"02121","02121","Eugene Station, Bay U","","44.047774300","-123.093230800","","99901","","","","U"
"02122","02122","E/S of Olive N of 8th","","44.051725500","-123.094217500","","","","","",""
"02123","02123","S/S of 5th E of Olive","","44.054274000","-123.093448300","","","","","",""
"02124","02124","S/S of 5th W of Pearl","","44.054244200","-123.090007500","","","","","",""
"02125","02125","E/S of Olive S of 10th","","44.048533400","-123.094227900","","99901","","","",""
"02126","02126","W/S of Olive S of 7th","","44.051728300","-123.094324800","","","","","",""
"02133","02133","S/S of MLK Blvd W of Centennial Lp","","44.059437900","-123.080950300","","","","","",""
"02134","02134","E/S of Club Rd S of Country Club Rd","","44.060157100","-123.084437000","","","","","",""
"02135","02135","W/S of Terry S of Barger","","44.083946300","-123.188308000","","","","","",""
"02150","02150","W/S Chambers S of 25th","","44.031907100","-123.117882600","","","","","",""
"02151","02151","W/S Chambers S of Northview","","44.029159800","-123.117878500","","","","","",""
"02152","02152","E/S of Garden Way N of MLK Blvd","","44.056831100","-123.052465100","","","","","",""
"02153","02153","E/S of Garden Way S of Commons","","44.058146000","-123.051924800","","","","","",""
"02156","02156","University of Oregon Station - Bay C","","44.046158600","-123.078588100","","99905","","","","C"
"02157","02157","University of Oregon Station - Bay A","","44.045738000","-123.078572000","","99905","","","","A"
"02158","02158","University of Oregon Station - Bay D","","44.046300900","-123.078596500","","99905","","","","D"
"02159","02159","University of Oregon Station - Bay E","","44.046444500","-123.078617800","","99905","","","","E"
"02301","02301","LCC Station Bay A","","44.009359100","-123.035000300","","99904","","","","A"
"02302","02302","LCC Station Bay B","","44.009468100","-123.035028800","","99904","","","","B"
"02303","02303","LCC Station Bay C","","44.009812300","-123.035146300","","99904","","","","C"
"02304","02304","LCC Station Bay D","","44.009984700","-123.035139600","","99904","","","","D"
"02305","02305","LCC Station Bay E","","44.010105100","-123.035206400","","99904","","","","E"
"02501","02501","Springfield Station, Bay A","","44.045427800","-123.021419100","","99902","","","","A"
"02502","02502","Springfield Station, Bay B","","44.045250200","-123.021259200","","99902","","","","B"
"02503","02503","Springfield Station, Bay C","","44.045097700","-123.021262500","","99902","","","","C"
"02504","02504","Springfield Station, Bay D","","44.044977600","-123.021156100","","99902","","","","D"
"02505","02505","Springfield Station, Bay E","","44.045013800","-123.021456800","","99902","","","","E"
"02506","02506","Springfield Station, Bay F","","44.045257100","-123.021654800","","99902","","","","F"
"02507","02507","Springfield Station, Bay G","","44.045530300","-123.021880500","","99902","","","","G"
"02510","02510","Springfield Station, Special Event B","","44.044927800","-123.020636100","","99902","","","",""
"02601","02601","Willow Creek Facility","","44.047751800","-123.172165100","","","","","",""
"02701","02701","Santa Clara Station, Bay A","","44.102364800","-123.130113300","","99911","","","","A"
"02702","02702","Santa Clara Station, Bay B","","44.102341800","-123.129798000","","99911","","","","B"
"02703","02703","Santa Clara Station, Bay C","","44.102341800","-123.129483700","","99911","","","","C"
"02705","02705","Santa Clara Station, Bay E","","44.102186800","-123.129991600","","99911","","","","E"
"02706","02706","Santa Clara Station, Bay F","","44.102194600","-123.130278800","","99911","","","","F"
"09001","09001","N/S of Hwy 126 (MP 12.7) E of Thriftway","","44.066041800","-122.810336600","","","","","",""
"09002","09002","W/S of Territorial S of Jack Kelly Dr","","44.052981400","-123.351713700","","","","","",""
"09008","09008","N/S of 8th E of Holly","","44.220990300","-123.203527500","","","","","",""
"09010","09010","W/S of Coburg Rd N of Game Farm Rd","","44.106291100","-123.056080500","","","","","",""
"09011","09011","E/S of Moss S of Shore","","43.919154200","-122.783156800","","","","","",""
"09012","09012","W/S of Territorial N of Hwy 126","","44.055244600","-123.352909500","","","","","",""
"09015","09015","N/S of Pearl W of S. Stuart Way","","44.137217600","-123.057801600","","","","","",""
"09016","09016","W/S of Hwy 99 N of Goshen","","43.997413300","-123.012435200","","","","","",""
"09018","09018","N/S of Hwy 58 W of Seavey Loop","","43.995242800","-123.001067200","","","","","",""
"09020","09020","S/S of Hwy 126 (MP 9.9) E of Thurston Rd","","44.051624100","-122.857593600","","","","","",""
"09021","09021","N/S of Hwy 126 (MP 9.7) E of Thurston Rd","","44.051314700","-122.860729000","","","","","",""
"09022","09022","S/S of Hwy 126 (MP 10.8) E of Mathers Mkt","","44.054274500","-122.841190800","","","","","",""
"09023","09023","N/S of Hwy 126 (MP 10.7) W of Mathers Mkt","","44.054043600","-122.842372400","","","","","",""
"09024","09024","S/S of Hwy 126 (MP 11.7) E of Flowerdale Dr","","44.058636700","-122.827022700","","","","","",""
"09025","09025","N/S of Hwy 126 (MP 11.7) W of Flowerdale Dr","","44.058501800","-122.827329600","","","","","",""
"09026","09026","S/S of Hwy 126 (MP 12.7) E of Walterville","","44.065966000","-122.810147100","","","","","",""
"09027","09027","S/S of Hwy 126 (MP 13.3) W of Fallin","","44.070154600","-122.799578700","","","","","",""
"09028","09028","N/S of Hwy 126 (MP 13.3) W of Fallin","","44.070303400","-122.799671400","","","","","",""
"09029","09029","S/S of Hwy 126 (MP 15.3) W of Twin Firs Rd","","44.078632700","-122.759479800","","","","","",""
"09030","09030","N/S of Hwy 126 (MP 15.3) E of Twin Firs Rd","","44.078812100","-122.759191500","","","","","",""
"09033","09033","S/S of Hwy 126 (MP 19.9)","","44.106660500","-122.677527000","","","","","",""
"09035","09035","S/S of Hwy 126 (MP 20.1) E of Mailbox 44895","","44.107121100","-122.675532000","","","","","",""
"09036","09036","N/S of Hwy 126 (MP 20.0) E of Johnson Crk","","44.106892000","-122.677080100","","","","","",""
"09041","09041","(^) N/S of Hwy 126 (MP 23.8) W of Leaburg Dam","","44.135868800","-122.613404400","","","","","",""
"09042","09042","S/S of Hwy 126 (MP 23.8) W of Leaburg Dam","","44.135807000","-122.613208700","","","","","",""
"09043","09043","N/S of Hwy 126 (MP 24.5) E of Hatchery Crk Rd","","44.141067200","-122.605983500","","","","","",""
"09044","09044","S/S of Hwy 126 (MP 24.8) E of Hatchery Crk Rd","","44.140539500","-122.601117100","","","","","",""
"09045","09045","S/S of Hwy 126 (MP 25.2) E of McKenzie Baptist","","44.143453600","-122.594407800","","","","","",""
"09046","09046","N/S of Hwy 126 (MP 32.7) E of McKenzie Baptist","","44.143458100","-122.594554400","","","","","",""
"09047","09047","S/S of Hwy 126 (MP 26.4) W of Gate Creek Rd","","44.146886600","-122.573168200","","","","","",""
"09048","09048","N/S of Hwy 126 (MP 26.4) E of Gate Creek Rd","","44.146971200","-122.572865800","","","","","",""
"09050","09050","N/S of Hwy 126 (MP 28.4) E of Mailbox 46451","","44.132787900","-122.540533100","","","","","",""
"09053","09053","S/S of Hwy 126 (MP 32.7) at 48500 McKenzie Hwy","","44.118332300","-122.461958800","","","","","",""
"09054","09054","N/S of Hwy 126 (MP 32.7) W of Driveway 48511","","44.118494300","-122.461803000","","","","","",""
"09055","09055","S/S of Hwy 126 (MP 34.5) W of Nimrod","","44.111913500","-122.433666600","","","","","",""
"09056","09056","N/S of Hwy 126 (MP 34.6) E of Nimrod","","44.111535800","-122.433128600","","","","","",""
"09057","09057","S/S of Hwy 126 (MP 35.7) W of Village Cafe","","44.119176300","-122.418062100","","","","","",""
"09058","09058","N/S of Hwy 126 (MP 35.8) E of Village Cafe","","44.119500000","-122.417758000","","","","","",""
"09061","09061","S/S of Hwy 126 (MP 38.0) W of Finn Rock Store","","44.130337400","-122.380143300","","","","","",""
"09062","09062","N/S of Hwy 126 (MP 38.2) E of Finn Rock Store","","44.143951000","-122.368114100","","","","","",""
"09063","09063","S/S of Blue Riv Dr W of Blue Riv Sch","","44.152873000","-122.361197800","","","","","",""
"09064","09064","N/S of Blue Riv Dr E of Blue Riv Sch","","44.152862800","-122.361384600","","","","","",""
"09065","09065","S/S of Blue Riv Dr E of McKenzie St","","44.152965300","-122.337954100","","","","","",""
"09066","09066","N/S of Blue River Dr W of Dexter St","","44.153910100","-122.338691600","","","","","",""
"09067","09067","S/S of Hwy 126 (MP 45.5) E of Aufderheide","","44.165631600","-122.260228300","","","","","",""
"09068","09068","N/S of Hwy 126 (MP 45.5) W of Aufderheide","","44.165726800","-122.260881600","","","","","",""
"09069","09069","S/S of Hwy 126 (MP 46.4) E of McKenzie Rvr Dr","","44.170408500","-122.241403300","","","","","",""
"09070","09070","N/S of Hwy126 (MP 46.3) W of McKenzie Rvr Dr","","44.170099600","-122.243723100","","","","","",""
"09071","09071","S/S of Hwy 126 (MP 47.5) E of Mill Creek Rd","","44.173906300","-122.220058800","","","","","",""
"09072","09072","N/S of Hwy 126 (MP 47.5) E of Mill Creek Rd","","44.173992300","-122.220227300","","","","","",""
"09073","09073","S/S of Hwy 126 (MP 50.0) E of Taylor","","44.176709800","-122.170092300","","","","","",""
"09074","09074","N/S of Hwy 126 (MP 49.9) E of Taylor Rd","","44.176940100","-122.170574800","","","","","",""
"09075","09075","S/S of Hwy 126 (MP 50.2) E of Mailbox 56311","","44.175513500","-122.166001500","","","","","",""
"09076","09076","N/S of Hwy 126 (MP 50.2) W of driveway 56311","","44.175612000","-122.166124600","","","","","",""
"09077","09077","S/S of Hwy126 (MP 50.3) W of McKenzie Bridge Store","","44.174761600","-122.163838600","","","","","",""
"09078","09078","N/S of Hwy126 (MP 50.3) E of McKenzie Bridge Store","","44.174584600","-122.162772800","","","","","",""
"09079","09079","S/S of Hwy 126 (MP 50.5) E of Horse Creek Rd","","44.173643800","-122.160195600","","","","","",""
"09080","09080","N/S of Hwy 126 (MP 50.6) E of Horse Creek Rd","","44.173585500","-122.157397300","","","","","",""
"09081","09081","S/S of Hwy 126 (MP 50.8) W of HUB RV","","44.174068500","-122.153852400","","","","","",""
"09082","09082","N/S of Hwy 126 (MP 50.8) W of driveway 56629","","44.174063800","-122.153960100","","","","","",""
"09083","09083","S/S of Hwy 126 (MP 52.8) E of McKenzieRngrSta","","44.179588300","-122.115274600","","","","","",""
"09086","09086","S/S of McKenzie Highway (MP 49) E of DW","","44.177140600","-122.186218800","","","","","",""
"09087","09087","N/S of McKenzie Highway (MP 49) W of Gravel Road","","44.177200800","-122.186281300","","","","","",""
"09089","09089","E/S of Huston Road N of E Bolton Rd","","44.041249200","-123.330235900","","","","","",""
"09090","09090","N/S of Hwy 126 (MP 1.3) E of Green Hill","","44.051780200","-123.208154000","","","","","",""
"09091","09091","S/S of Hwy 126 ( MP 1.2) W. of Green Hill","","44.051904700","-123.209224200","","","","","",""
"09092","09092","N/S of Hwy 126 (MP 52.0) E of Fisher","","44.053226500","-123.244674900","","","","","",""
"09093","09093","S/S of Hwy 126 (MP 52.0) E of Fisher","","44.053066500","-123.244659600","","","","","",""
"09095","09095","S/S of Hwy 126 (MP 50.8) E of Coyote Crk","","44.052574100","-123.268062000","","","","","",""
"09096","09096","N/S of Hwy 126 (MP 49.7) E of Central Rd","","44.052773900","-123.291537700","","","","","",""
"09097","09097","S/S of Hwy 126 (MP 49.7) W of Central Rd","","44.052571600","-123.292118000","","","","","",""
"09098","09098","N/S of Hwy 126 (MP 49.4) E of Ellmaker","","44.052776900","-123.318223400","","","","","",""
"09099","09099","S/S of Hwy 126 (MP 49.4) E of Ellmaker","","44.052610900","-123.318101700","","","","","",""
"09135","09135","E/S of Birch S of 6th (JC)","","44.219252500","-123.196806800","","","","","",""
"09140","09140","E/S of Coburg N of Driveway 89925","","44.106516800","-123.055399300","","","","","",""
"09143","09143","E/S of Coburg N of McKenzie View Dr","","44.114051400","-123.046935000","","","","","",""
"09144","09144","W/S of Coburg N of McKenzie View Dr","","44.114978300","-123.047977800","","","","","",""
"09145","09145","E/S of Willamette N of Dixon","","44.135586300","-123.065572100","","","","","",""
"09157","09157","S/S of McKenzieRvrDr (MP 0.8) E of King Rd Br","","44.168373800","-122.228126100","","","","","",""
"09158","09158","S/S of McKenzieRvrDr (MP 1.3) E of Mill Crk Br","","44.171476300","-122.220414100","","","","","",""
"09159","09159","S/S of McKenzieRvrDr (MP 2.8) E of Mailbx 55636","","44.175656800","-122.191758100","","","","","",""
"09160","09160","N/S of McKenzieRvrDr (MP 1.2) W of Mill CrkRd","","44.171134300","-122.221034100","","","","","",""
"09170","09170","N/S of McKenzieRvrDr (MP 0.7) W of KingRdBr","","44.168297100","-122.229119100","","","","","",""
"09171","09171","S/S of Hwy 126 (MP 9.0) W of Thurston Rd","","44.048899800","-122.876107700","","","","","",""
"09172","09172","S/S of Hwy 126 (MP 35.3) E of Nimrod","","44.114776600","-122.421777800","","","","","",""
"09176","09176","S/S of McKenzieRvrDr (MP 2.5) E of DW55472","","44.174667300","-122.197991300","","","","","",""
"09178","09178","N/S of Hwy 126 (MP 31.6) W of DW 47955","","44.133103600","-122.483237300","","","","","",""
"09179","09179","S/S of Hwy 126 (MP 39.05) E of Mailbox 50950","","44.143856300","-122.368044800","","","","","",""
"09181","09181","S/S of Hwy 126 (MP 42.4) E of Mailbox 52494","","44.156082100","-122.310851000","","","","","",""
"09182","09182","N/S of Hwy 126 (MP 42.4) E of LazyDaysRV Pk","","44.155773800","-122.311445100","","","","","",""
"09183","09183","S/S of Hwy 126 (MP 39.6) W of BlueRvrDr","","44.150115900","-122.362761500","","","","","",""
"09184","09184","N/S of Hwy 126 (MP 39.6) W of BlueRvrDr","","44.150217900","-122.362951600","","","","","",""
"09185","09185","S/S of E. Pearl E of S. Harrison","","44.137083500","-123.065253600","","","","","",""
"09186","09186","S/S of E. Pearl W of Coleman","","44.137078300","-123.062921100","","","","","",""
"09187","09187","N/S of E. Pearl E of Coleman","","44.137167100","-123.062592100","","","","","",""
"09188","09188","N/S of E. Pearl E of N. Harrison","","44.137160800","-123.065368800","","","","","",""
"09193","09193","S/S of Hunter W of 3rd St.","","44.048856400","-123.354009700","","","","","",""
"09195","09195","N/S of Broadway W of 2nd","","44.051304800","-123.354238300","","","","","",""
"09197","09197","N/S Broadway W Territorial","","44.051292700","-123.352299800","","","","","",""
"09198","09198","W/S of 5th S of McCutcheon","","44.049265300","-123.356168300","","","","","",""
"09217","09217","W/S of Territorial (MP 19.8) S of Hunter","","44.048585500","-123.351621700","","","","","",""
"09219","09219","W/S of Territorial (MP 20.2) S of Bolton","","44.043202500","-123.351945800","","","","","",""
"09220","09220","W/S of Territorial (MP 20.3) S of Cheney","","44.041424700","-123.352134700","","","","","",""
"09222","09222","W/S of Territorial (MP 20.6) N of Perkins","","44.037712200","-123.352422800","","","","","",""
"09225","09225","E/S of Huston (MP 1.1) N of Perkins","","44.037499600","-123.330118900","","","","","",""
"09227","09227","E/S of Huston (MP .5) S of driveway 87944","","44.045057700","-123.330278000","","","","","",""
"09228","09228","E/S of Huston (MP .3) S of Hunter","","44.048288800","-123.330260900","","","","","",""
"09229","09229","E/S of Huston (MP .1) S of Hwy 126","","44.051898800","-123.330243100","","","","","",""
"09231","09231","S/S of Perkins (MP .2) W of Oak Isand Dr","","44.037024900","-123.347749200","","","","","",""
"09232","09232","S/S of Perkins (MP 0.5) W of Erdman","","44.037089200","-123.341913400","","","","","",""
"09233","09233","E/S of Hwy 99 N of Airport Rd","","44.114040800","-123.182162200","","","","","",""
"09234","09234","W/S of Hwy 99 S of Airport Rd","","44.112911700","-123.181446600","","","","","",""
"09236","09236","N/S of Hwy 58 W of Pleasant Hill","","43.969611800","-122.938649800","","","","","",""
"09237","09237","(^) S/S of Hwy 58 E of Pleasant Hill","","43.969440100","-122.938801800","","","","","",""
"09240","09240","(^) N/S of Lost Crk (Dexter)","","43.914831600","-122.812855400","","","","","",""
"09241","09241","(^) S/S of Lost Crk (Dexter)","","43.914659900","-122.812502100","","","","","",""
"09242","09242","S/S of Hwy 126 (MP 14.7) W of Partridge Lane","","44.075975100","-122.771946700","","","","","",""
"09244","09244","S/S of Hwy 126 (MP 16.91) W of DW 41404","","44.086443100","-122.731635400","","","","","",""
"09245","09245","S/S of Hwy 126 (MP 19.02) W of Holden Creek Ln","","44.100187000","-122.693389800","","","","","",""
"09246","09246","S/S of Hwy 126 (MP 21.37) W of Greenwood Drive","","44.113886700","-122.650747600","","","","","",""
"09247","09247","S/S of Hwy 126 (MP 22.05) W of Greer Drive","","44.119322000","-122.639502900","","","","","",""
"09248","09248","S/S of Hwy 126 (MP 22.84) E of Eweb #6092","","44.126185100","-122.624860400","","","","","",""
"09249","09249","S/S of Hwy 126 (MP 23.41) E of Mt View Lane","","44.130849200","-122.617140100","","","","","",""
"09252","09252","W/S of Territorial N of Meadowdale","","44.046553300","-123.351677600","","","","","",""
"09253","09253","S/S of Hwy 126 (MP 30.27) E of DW 47386","","44.132125600","-122.504337100","","","","","",""
"09254","09254","S/S of Hwy 126 (MP 37.31) W of Mailbox 50389","","44.122578400","-122.389021800","","","","","",""
"09255","09255","N/S of Hwy 126 (MP 17.19) E of DW 41567","","44.089529000","-122.725727400","","","","","",""
"09256","09256","S/S of Hwy 126 (MP 30.94) W of Eweb #47760","","44.132839100","-122.490548800","","","","","",""
"09257","09257","N/S of Hwy 126 (MP 22.62) E of Canal Lane","","44.124947200","-122.630025100","","","","","",""
"09301","09301","(^) Fleet Glenwood Outbound","","44.045350000","-123.040953400","","","","","",""
"09302","09302","(^) Fleet Lexington Outbound","","44.044593700","-123.034957800","","","","","",""
"09303","09303","(^) Fleet McVay Outbound","","44.044211700","-123.031946300","","","","","",""
"09304","09304","(^) Fleet McVay Inbound","","44.044593200","-123.031009500","","","","","",""
"09305","09305","(^) Fleet Lexington Inbound","","44.044987200","-123.036538200","","","","","",""
"09500","09500","N/S of Irvington Dr. W of River Road","","44.115857400","-123.137804400","","","","","",""
"09501","09501","N/S of Irvington Dr. W of Revell","","44.115826100","-123.144130300","","","","","",""
"09502","09502","N/S of Irvington Dr. W of Hyacinth","","44.115835100","-123.150544300","","","","","",""
"09601","09601","W/S of CoburgIndustrialWy NofMonaco","","44.144525600","-123.058290900","","","","","",""
"09608","09608","E/S of Coburg Rd N of Armitage Pk ent","","44.108226100","-123.052132600","","","","","",""
"09609","09609","W/S of Coburg Rd S of Armitage Pk","","44.108038800","-123.052912000","","","","","",""
"09610","09610","S/S of Pearl W of S. Stuart Way","","44.137022100","-123.058639300","","","","","",""
"09611","09611","W/S of Coburg Industrial Way N of Pearl","","44.139851600","-123.056697600","","","","","",""
"09612","09612","E/S of Coburg Industrial Way N of Pearl","","44.139789200","-123.056513600","","","","","",""
"09800","09800","E/S of WalMart Rd N of Thomas Ln","","43.799206000","-123.040638200","","","","","",""
"09801","09801","W/S of Hwy 99N S of Geer","","43.804815600","-123.056157200","","","","","",""
"09802","09802","W/S of 9th S of Chadwick","","43.801243600","-123.059116300","","","","","",""
"09803","09803","W/S of 9th S of Gibbs","","43.798392100","-123.059136600","","","","","",""
"09804","09804","N/S of Taylor W of 10th","","43.786880400","-123.059256700","","","","","",""
"09805","09805","E/S of 6th S of Quincy","","43.791674000","-123.061897400","","","","","",""
"09809","09809","E/S of R St N of Harrison","","43.790965100","-123.075475000","","","","","",""
"09810","09810","E/S of R St S of Main St","","43.797446600","-123.075666200","","","","","",""
"09811","09811","S/S of Main W of M St","","43.797581900","-123.070571100","","","","","",""
"09812","09812","S/S of Main E of I St","","43.797576800","-123.065862600","","","","","",""
"09813","09813","S/S of W Main W of 5th","","43.797249100","-123.063394800","","","","","",""
"09815","09815","S/S of E Main W of 15th","","43.797208300","-123.053057000","","","","","",""
"09816","09816","S/S of E Main W of Gateway Blvd","","43.797139500","-123.049304700","","","","","",""
"09817","09817","S/S of Whiteaker E of 22nd","","43.798038400","-123.043105800","","","","","",""
"09818","09818","S/S of E Main St E of S 10th St","","43.797214600","-123.055676000","","","","","",""
"09819","09819","W/S of 10th St N of E Washington Ave","","43.796613100","-123.058008400","","","","","",""
"09820","09820","W/S of 10th St N of Quincy","","43.791618100","-123.058056600","","","","","",""
"09821","09821","E/S of Row River N of Thornton","","43.802443400","-123.040347200","","","","","",""
"09822","09822","N/S of Taylor St E of 6th St","","43.786891600","-123.061788300","","","","","",""
"09823","09823","W/S of S 10th St S of Tyler","","43.789256700","-123.058074800","","","","","",""
"09824","09824","W/S of S Pacific Hwy N of Harrison","","43.790972700","-123.063867700","","","","","",""
"09825","09825","E/S of S River Rd S of LCC","","43.787245600","-123.069439600","","","","","",""
"09826","09826","E/S of S River Rd S of Harrison","","43.789705300","-123.070028800","","","","","",""
"09827","09827","E/S of S. River Road N of Hwy 99","","43.784936200","-123.069412300","","","","","",""
"09828","09828","W/S of Row River N of Village Green DW","","43.802453400","-123.040489600","","","","","",""
"09830","09830","N/S of C E of 1st","","43.917011600","-123.019787300","","","","","",""
"09831","09831","S/S of F St E of 2nd St","","43.914321100","-123.020712300","","","","","",""
"09832","09832","S/S of E. Oregon Ave. E of Hwy 99","","43.917808600","-123.016883800","","","","","",""
"09833","09833","N/S of E. Oregon Ave. E of Hwy 99","","43.917941400","-123.017284100","","","","","",""
"09834","09834","E/S of 6th S of E Harrison Ave  CG","","43.789438900","-123.061932100","","","","","",""
"09835","09835","S/S of W Main W of N P","","43.797622100","-123.073855000","","","","","",""
"09841","09841","E/S of Hwy 99 N of Irving","","44.103730200","-123.172469000","","","","","",""
"09842","09842","W/S of Hwy 99 S of Irving","","44.102821700","-123.171964200","","","","","",""
"09843","09843","S/S of E 1st E of second driveway (Country Coach)","","44.214941800","-123.199303800","","","","","",""
"09844","09844","E/S of Hwy 99 N of Barger Dr.","","44.085055000","-123.154996800","","","","","",""
"09845","09845","W/S of Hwy 99 S of Bow Tech driveway","","44.120310800","-123.188392300","","","","","",""
"09846","09846","E/S of Hwy 99 N of Enid","","44.121194900","-123.188888700","","","","","",""
"09847","09847","S/S of E. 1st E of Railroad tracks","","44.214967600","-123.202826600","","","","","",""
"09849","09849","N/S of E 6th W Bi-mart DW","","44.219353100","-123.200807300","","","","","",""
"09850","09850","N/S of W. 10th W of Ivy (JC)","","44.222656900","-123.205184000","","","","","",""
"09851","09851","N/S of W 10th East of Maple","","44.222560600","-123.208738200","","","","","",""
"09852","09852","W/S of Maple N of W. 5th","","44.218741000","-123.208975700","","","","","",""
"09853","09853","W/S of Maple N of W. 1st","","44.215227900","-123.208802800","","","","","",""
"09854","09854","W/S of Prairie Rd N of Bailey Ln","","44.207760300","-123.208956600","","","","","",""
"09855","09855","E/S of S R S of Bryant Ave","","43.795278900","-123.075705200","","","","","",""
"09901","09901","EmX High Street Station outbound","","44.048787100","-123.087714300","","","","","",""
"09902","09902","EmX Hilyard Station Outbound","","44.047603100","-123.082310800","","","","","",""
"09903","09903","EmX Dads' Gates Station Outbound","","44.047651800","-123.077480800","","","","","",""
"09904","09904","EmX Agate Station Outbound","","44.046351300","-123.069273300","","","","","",""
"09905","09905","EmX Walnut Station Outbound","","44.044700600","-123.061104800","","","","","",""
"09906","09906","EmX Glenwood Station inbound","","44.045300300","-123.043249300","","","","","",""
"09907","09907","EmX Glenwood Station outbound","","44.045312100","-123.040884100","","","","","",""
"09908","09908","EmX Lexington Station inbound","","44.045003800","-123.036588300","","","","","",""
"09909","09909","EmX Lexington Station outbound","","44.044580500","-123.034911600","","","","","",""
"09910","09910","EmX McVay Station Outbound","","44.044198600","-123.031984800","","","","","",""
"09911","09911","E Street Station","","44.050916600","-123.022073600","","","","","",""
"09912","09912","F Street Station","","44.051183600","-123.023221600","","","","","",""
"09913","09913","Centennial Station Outbound","","44.057111000","-123.024035100","","","","","",""
"09914","09914","Q Street Station outbound","","44.063324600","-123.026245300","","","","","",""
"09915","09915","Hayden Bridge Station Outbound","","44.070195800","-123.028639600","","","","","",""
"09916","09916","RiverBend Station_counter-clockwise","","44.077657300","-123.030997300","","","","","",""
"09917","09917","RiverBend Station_clockwise","","44.077884300","-123.030777100","","","","","",""
"09918","09918","Sacred Heart Station_clockwise","","44.079837600","-123.028953300","","","","","",""
"09919","09919","Sacred Heart Station_counter-clockwise","","44.080531100","-123.028765100","","","","","",""
"09920","09920","International Way East Station Outbound","","44.088441800","-123.030474100","","","","","",""
"09921","09921","International Center Station Outbound","","44.088586600","-123.036478600","","","","","",""
"09922","09922","International Way Station West Outbound","","44.088490800","-123.042274800","","","","","",""
"09923","09923","Kruse Way Station_counter-clockwise","","44.081714800","-123.041776100","","","","","",""
"09924","09924","Kruse Way Station_clockwise","","44.081801100","-123.041490800","","","","","",""
"09925","09925","Postal Way Station_counter-clockwise","","44.077945600","-123.042092300","","","","","",""
"09926","09926","Postal Way Station_clockwise","","44.077522300","-123.041907300","","","","","",""
"09927","09927","Gateway Sta.-Bay C (EmX to SS)","","44.073539600","-123.042706600","","99907","","","","C"
"09928","09928","Gateway Sta.-Bay D (EmX to RB)","","44.073723800","-123.042746500","","99907","","","","D"
"09929","09929","Guy Lee Station_clockwise","","44.071013000","-123.040274100","","","","","",""
"09930","09930","Guy Lee Station_counter-clockwise","","44.070825800","-123.039153300","","","","","",""
"09931","09931","Pheasant Station_clockwise","","44.071003100","-123.033785500","","","","","",""
"09932","09932","Pheasant Station_counter-clockwise","","44.070814600","-123.034314600","","","","","",""
"09933","09933","Q Street Station inbound","","44.062769600","-123.026155500","","","","","",""
"09934","09934","High Street Station inbound","","44.047773800","-123.088697600","","","","","",""
"09936","09936","Pavilion Station Outbound","","44.083062800","-123.027916800","","","","","",""
"09937","09937","Charnelton Station Outbound","","44.051685100","-123.095805600","","","","","",""
"09938","09938","Charnelton Station Inbound","","44.052490900","-123.095733000","","","","","",""
"09939","09939","Monroe/6th Station Inbound","","44.053207600","-123.105334100","","","","","",""
"09940","09940","Monroe/7th Station Outbound","","44.052061100","-123.104387500","","","","","",""
"09941","09941","Polk/6th Station Inbound","","44.053214100","-123.112967800","","","","","",""
"09942","09942","Polk/7th Station Outbound","","44.052091300","-123.112735300","","","","","",""
"09943","09943","Chambers/6th Station Inbound","","44.053236000","-123.119012600","","","","","",""
"09944","09944","Chambers/7th Station Outbound","","44.052071800","-123.118691800","","","","","",""
"09945","09945","Garfield/6th Station Inbound","","44.053274600","-123.122527100","","","","","",""
"09946","09946","Garfield/7th Station Outbound","","44.051731300","-123.122717800","","","","","",""
"09947","09947","Garfield/11th Station Inbound","","44.048031000","-123.123113100","","","","","",""
"09948","09948","Garfield/10th Station Outbound","","44.048407800","-123.122878600","","","","","",""
"09949","09949","McKinley Station Outbound","","44.047773400","-123.129433800","","","","","",""
"09950","09950","McKinley Station Inbound","","44.047947600","-123.130509100","","","","","",""
"09951","09951","Oak Patch Station Outbound","","44.047808300","-123.135588300","","","","","",""
"09952","09952","Oak Patch Station Inbound","","44.047995300","-123.135859800","","","","","",""
"09953","09953","Seneca Station Outbound","","44.047830900","-123.140866300","","","","","",""
"09954","09954","Seneca Station Inbound","","44.048044600","-123.141435000","","","","","",""
"09955","09955","Bailey Hill Station Outbound","","44.047920800","-123.148221900","","","","","",""
"09956","09956","Bailey Hill Station Inbound","","44.048143600","-123.149071100","","","","","",""
"09957","09957","Sam Reynolds Station Outbound","","44.047920400","-123.156122600","","","","","",""
"09958","09958","Sam Reynolds Station Inbound","","44.048154900","-123.156364800","","","","","",""
"09959","09959","Bertelsen Station Outbound","","44.047946800","-123.161884000","","","","","",""
"09960","09960","Bertelsen Station Inbound","","44.048131000","-123.162985600","","","","","",""
"09961","09961","Commerce Station Outbound","","44.047993100","-123.170425800","","","","","",""
"09962","09962","Commerce Station Inbound","","44.048204300","-123.170537400","","","","","",""
"09963","09963","EmX Hilyard Station Inbound","","44.047713500","-123.082545100","","","","","",""
"09964","09964","EmX Dads' Gates Station Inbound","","44.047765800","-123.077748600","","","","","",""
"09965","09965","EmX Agate Station Inbound","","44.046519100","-123.069442500","","","","","",""
"09966","09966","EmX Walnut Station Inbound","","44.044832100","-123.061328600","","","","","",""
"09967","09967","EmX McVay Station Inbound","","44.044617100","-123.030958300","","","","","",""
"09968","09968","Centennial Station Inbound","","44.056918800","-123.024106100","","","","","",""
"09969","09969","Hayden Bridge Station Inbound","","44.070028300","-123.028675300","","","","","",""
"09970","09970","International Way East Station Inbound","","44.088361800","-123.030267800","","","","","",""
"09971","09971","International Center Station Inbound","","44.088468600","-123.036294300","","","","","",""
"09972","09972","International Way Station West Inbound","","44.088487100","-123.042023800","","","","","",""
"09973","09973","Pavilion Station Inbound","","44.082890300","-123.028051300","","","","","",""
"99901","99901","Eugene Station-LTD","eugsta","44.048046900","-123.092976100","1","","","","",""
"99902","99902","Springfield Station","ss_sta","44.045097700","-123.021262500","1","","","","",""
"99903","99903","Amazon Station","amzsta","44.026867500","-123.084488500","1","","","","",""
"99904","99904","LCC Station","lccsta","44.009468100","-123.035028800","1","","","","",""
"99905","99905","U of O Station","uosta","44.046157300","-123.078575300","1","","","","",""
"99906","99906","U of O Station - South","uosth","44.044759100","-123.078772100","1","","","","",""
"99907","99907","Gateway Station","gtwsta","44.073139100","-123.042685200","1","","","","",""
"99908","99908","Thurston Station","thrsta","44.044772100","-122.930139000","1","","","","",""
"99909","99909","VRC Station","vrcsta","44.067373500","-123.106236600","1","","","","",""
"99910","99910","River Road Station","rrsta","44.096172600","-123.126965600","1","","","","",""
"99911","99911","Santa Clara Station","scsta","44.102072000","-123.130756500","1","","","","",""
"arr_lcc","arr_lcc","Approaching LCC Sta","","44.008741300","-123.036705200","","","","","",""
"arr_scts","arr_scts","Approaching Santa Clara Transit Station","","44.102072000","-123.130756500","","99911","","","",""
"arr_senc","arr_senc","Seneca Park and Ride arrival zone","","44.048722100","-123.142496400","","","","","",""
"arr_uo","arr_uo","Approaching UO Station","","44.045528700","-123.078906900","","","","","",""
"escenter","escenter","Eugene Sta central arrival zone","","44.048319000","-123.093684100","","","","","",""
"ss_arr_5","ss_arr_5","Spfld Sta 5th St arrival zone","","44.044965600","-123.019927900","","","","","",""
"ss_arr_a","ss_arr_a","Spfld Sta South A St arrival zone","","44.045267700","-123.021265400","","","","","",""
